{
"_meta": {
"source": "Open-Meteo Historical Weather API (archive-api.open-meteo.com)",
"description": "Climate normals — avg daily high/low (°C) per calendar month. Typical averages, not a forecast.",
"window": "2019-2023",
"generated": "2026-07-21",
"keys": "guide folder name; hi[]/lo[] are 12 values Jan..Dec in °C; rain[] is mm/month; rain_days[] is days≥1mm/month"
},
"Abu Dhabi": {
"city": "Abu Dhabi",
"lat": 24.4539,
"lon": 54.3773,
"hi": [
23.6,
24.9,
28.5,
32.6,
36.0,
38.6,
40.1,
40.4,
38.6,
34.9,
30.3,
26.1
],
"lo": [
17.5,
18.1,
20.5,
23.7,
27.0,
30.2,
32.0,
31.8,
30.1,
27.2,
23.6,
20.0
],
"rain": [
27,
2,
3,
3,
0,
0,
1,
0,
0,
1,
3,
4
],
"rain_days": [
2,
1,
1,
0,
0,
0,
0,
0,
0,
0,
0,
1
]
},
"Aix-en-Provence": {
"city": "Aix-en-Provence",
"lat": 43.5297,
"lon": 5.4474,
"hi": [
10.1,
13.3,
15.6,
18.2,
22.2,
28.2,
31.6,
30.7,
25.8,
21.0,
14.5,
11.4
],
"lo": [
1.0,
3.2,
4.7,
7.3,
11.4,
16.5,
19.0,
18.2,
15.0,
11.2,
6.1,
3.4
],
"rain": [
24,
32,
25,
63,
67,
41,
5,
28,
73,
87,
90,
75
],
"rain_days": [
6,
5,
4,
9,
10,
6,
1,
3,
7,
8,
10,
10
]
},
"Alaska": {
"city": "Alaska",
"lat": 64.2,
"lon": -153.0,
"hi": [
-16.6,
-13.1,
-5.0,
2.3,
13.5,
18.9,
20.0,
16.7,
10.2,
1.1,
-9.4,
-14.3
],
"lo": [
-22.4,
-20.5,
-13.5,
-8.0,
3.2,
10.0,
11.8,
9.4,
3.2,
-4.3,
-15.2,
-21.0
],
"rain": [
16,
34,
25,
27,
20,
70,
62,
91,
52,
44,
46,
41
],
"rain_days": [
5,
10,
7,
7,
7,
13,
13,
15,
12,
9,
11,
10
]
},
"Alesund": {
"city": "Alesund",
"lat": 62.47,
"lon": 6.15,
"hi": [
3.6,
4.3,
5.7,
8.9,
11.1,
16.6,
16.7,
17.1,
14.5,
10.1,
5.8,
2.8
],
"lo": [
-0.2,
-0.0,
0.4,
2.1,
5.3,
10.6,
11.4,
11.5,
9.2,
5.2,
1.8,
-0.8
],
"rain": [
260,
194,
165,
116,
138,
97,
172,
164,
259,
240,
166,
184
],
"rain_days": [
22,
20,
20,
12,
18,
15,
18,
17,
20,
20,
14,
18
]
},
"Amalfi": {
"city": "Amalfi",
"lat": 40.634,
"lon": 14.6027,
"hi": [
12.5,
14.2,
15.4,
17.7,
21.7,
27.8,
30.8,
30.8,
27.4,
22.7,
18.0,
14.9
],
"lo": [
5.1,
5.8,
6.9,
9.6,
13.9,
18.6,
21.5,
21.7,
18.8,
14.6,
11.7,
8.4
],
"rain": [
142,
67,
99,
83,
112,
45,
28,
35,
119,
95,
295,
199
],
"rain_days": [
14,
8,
11,
12,
13,
6,
5,
8,
8,
9,
18,
14
]
},
"Amsterdam": {
"city": "Amsterdam",
"lat": 52.37,
"lon": 4.9,
"hi": [
7.1,
9.0,
10.3,
13.1,
16.1,
21.4,
21.2,
22.1,
19.7,
15.2,
10.5,
7.5
],
"lo": [
2.7,
3.1,
3.4,
4.7,
8.0,
13.1,
13.9,
14.7,
12.0,
9.7,
5.5,
3.1
],
"rain": [
80,
82,
69,
51,
59,
79,
80,
82,
76,
139,
89,
91
],
"rain_days": [
14,
14,
13,
9,
11,
12,
15,
15,
12,
19,
17,
18
]
},
"Annecy": {
"city": "Annecy",
"lat": 45.9,
"lon": 6.13,
"hi": [
6.1,
10.3,
12.2,
15.0,
18.4,
24.1,
26.4,
26.1,
22.1,
17.4,
10.4,
7.6
],
"lo": [
-0.2,
1.1,
2.6,
4.9,
8.9,
14.4,
16.3,
16.1,
13.4,
9.4,
4.4,
1.8
],
"rain": [
100,
81,
108,
115,
125,
135,
124,
100,
98,
156,
160,
192
],
"rain_days": [
11,
11,
12,
9,
14,
15,
11,
9,
10,
14,
16,
17
]
},
"Aracaju": {
"city": "Aracaju",
"lat": -10.9472,
"lon": -37.0731,
"hi": [
29.7,
30.5,
30.0,
29.3,
28.2,
26.7,
26.1,
26.2,
27.1,
28.6,
29.3,
29.6
],
"lo": [
24.8,
25.2,
24.7,
24.6,
24.0,
23.0,
22.4,
22.3,
22.8,
23.7,
24.3,
24.6
],
"rain": [
66,
46,
135,
124,
181,
170,
164,
87,
61,
53,
85,
61
],
"rain_days": [
18,
15,
22,
21,
23,
26,
26,
23,
21,
18,
18,
17
]
},
"Arenal": {
"city": "Arenal",
"lat": 10.47,
"lon": -84.7,
"hi": [
20.8,
21.4,
22.0,
23.2,
23.6,
23.1,
22.6,
23.1,
23.8,
23.3,
21.8,
20.9
],
"lo": [
16.8,
16.6,
16.9,
17.8,
18.8,
18.9,
18.7,
18.7,
18.7,
18.6,
18.3,
17.6
],
"rain": [
411,
291,
268,
196,
417,
461,
472,
450,
379,
550,
577,
532
],
"rain_days": [
29,
24,
28,
24,
29,
30,
31,
31,
28,
31,
30,
29
]
},
"Aruba": {
"city": "Aruba",
"lat": 12.52,
"lon": -70.02,
"hi": [
28.5,
28.5,
28.8,
29.6,
30.3,
30.5,
30.5,
31.1,
31.8,
30.9,
29.6,
29.2
],
"lo": [
24.9,
24.8,
25.0,
25.6,
26.3,
26.5,
26.6,
27.0,
27.4,
26.8,
26.1,
25.8
],
"rain": [
34,
30,
33,
21,
17,
32,
33,
45,
42,
70,
88,
47
],
"rain_days": [
14,
11,
13,
7,
6,
9,
12,
12,
8,
14,
19,
17
]
},
"Athens": {
"city": "Athens",
"lat": 37.98,
"lon": 23.73,
"hi": [
12.3,
13.2,
15.0,
18.7,
24.6,
29.3,
33.6,
33.1,
28.6,
23.8,
19.1,
14.9
],
"lo": [
5.4,
6.0,
7.2,
10.4,
15.7,
19.9,
23.2,
23.1,
19.5,
15.3,
11.8,
8.6
],
"rain": [
91,
51,
42,
44,
33,
30,
5,
13,
16,
38,
72,
110
],
"rain_days": [
9,
7,
6,
7,
5,
6,
1,
3,
3,
4,
8,
10
]
},
"Atlanta": {
"city": "Atlanta",
"lat": 33.77,
"lon": -84.39,
"hi": [
12.0,
14.9,
18.3,
21.6,
26.3,
29.1,
30.8,
30.6,
28.0,
22.8,
16.8,
13.6
],
"lo": [
2.8,
5.0,
7.8,
10.1,
15.5,
19.4,
21.6,
21.4,
18.1,
12.8,
6.5,
4.4
],
"rain": [
133,
180,
141,
124,
110,
133,
211,
168,
141,
105,
80,
132
],
"rain_days": [
12,
14,
12,
10,
11,
14,
18,
20,
10,
9,
8,
11
]
},
"Austin": {
"city": "Austin",
"lat": 30.27,
"lon": -97.74,
"hi": [
16.9,
17.0,
23.1,
26.2,
29.5,
33.5,
35.3,
36.3,
33.2,
27.5,
20.8,
19.0
],
"lo": [
6.5,
5.8,
12.0,
15.1,
19.7,
23.2,
25.0,
25.6,
22.9,
16.6,
10.7,
8.3
],
"rain": [
87,
74,
80,
148,
209,
108,
62,
98,
80,
121,
83,
59
],
"rain_days": [
8,
11,
11,
13,
15,
11,
9,
8,
9,
10,
9,
8
]
},
"Azores": {
"city": "Azores",
"lat": 37.74,
"lon": -25.67,
"hi": [
16.8,
16.5,
17.0,
17.6,
19.2,
20.9,
23.4,
24.9,
23.6,
21.8,
19.5,
17.5
],
"lo": [
13.7,
12.6,
13.3,
13.9,
15.1,
16.9,
18.9,
20.5,
19.6,
18.2,
16.1,
14.3
],
"rain": [
117,
129,
119,
146,
106,
112,
48,
99,
78,
147,
141,
182
],
"rain_days": [
17,
16,
18,
19,
21,
17,
15,
19,
17,
18,
17,
19
]
},
"Bali": {
"city": "Bali",
"lat": -8.4095,
"lon": 115.1889,
"hi": [
26.4,
26.6,
26.6,
26.3,
26.1,
25.1,
23.7,
24.1,
24.9,
26.0,
26.5,
26.7
],
"lo": [
21.4,
21.3,
21.1,
21.1,
21.0,
20.3,
19.5,
19.3,
19.8,
20.5,
21.0,
21.2
],
"rain": [
343,
370,
408,
232,
161,
151,
146,
152,
152,
198,
320,
327
],
"rain_days": [
28,
27,
30,
25,
21,
22,
25,
22,
22,
26,
28,
28
]
},
"Bangkok": {
"city": "Bangkok",
"lat": 13.7563,
"lon": 100.5018,
"hi": [
31.6,
32.4,
33.4,
33.9,
33.7,
32.8,
32.0,
31.4,
30.8,
30.6,
31.3,
31.0
],
"lo": [
22.1,
23.7,
25.8,
26.8,
26.6,
26.2,
25.7,
25.5,
25.0,
24.3,
23.7,
22.0
],
"rain": [
16,
43,
41,
88,
140,
151,
198,
224,
325,
271,
77,
14
],
"rain_days": [
4,
6,
7,
14,
20,
23,
26,
28,
27,
21,
11,
4
]
},
"Barbados": {
"city": "Barbados",
"lat": 13.19,
"lon": -59.54,
"hi": [
26.4,
26.5,
26.9,
27.5,
28.2,
28.2,
27.8,
28.2,
29.1,
28.2,
27.5,
27.0
],
"lo": [
22.0,
21.8,
22.0,
22.5,
23.5,
23.7,
23.6,
23.7,
24.0,
23.9,
23.3,
22.8
],
"rain": [
47,
44,
36,
50,
47,
84,
118,
125,
93,
119,
90,
60
],
"rain_days": [
16,
15,
14,
15,
14,
20,
24,
25,
21,
20,
20,
18
]
},
"Barcelona": {
"city": "Barcelona",
"lat": 41.39,
"lon": 2.17,
"hi": [
13.2,
15.2,
16.3,
17.7,
21.4,
25.9,
28.7,
28.9,
25.8,
22.3,
17.8,
15.4
],
"lo": [
4.0,
6.1,
8.0,
9.9,
13.7,
18.6,
21.6,
21.7,
18.5,
14.8,
9.6,
6.4
],
"rain": [
50,
21,
37,
69,
58,
32,
28,
48,
89,
82,
45,
34
],
"rain_days": [
4,
4,
6,
9,
7,
6,
5,
6,
10,
8,
7,
4
]
},
"Beijing": {
"city": "Beijing",
"lat": 39.9,
"lon": 116.4,
"hi": [
2.8,
6.2,
15.3,
21.4,
27.8,
32.6,
31.7,
29.7,
27.2,
18.9,
10.1,
2.4
],
"lo": [
-6.9,
-4.7,
1.2,
7.9,
14.2,
20.3,
22.3,
21.1,
16.6,
7.9,
0.3,
-6.6
],
"rain": [
2,
9,
12,
17,
25,
65,
224,
147,
71,
22,
21,
5
],
"rain_days": [
1,
2,
4,
3,
4,
6,
14,
11,
6,
3,
3,
1
]
},
"Bend": {
"city": "Bend",
"lat": 44.06,
"lon": -121.31,
"hi": [
6.2,
5.3,
7.4,
12.6,
17.4,
22.9,
28.8,
28.4,
23.1,
16.1,
9.0,
5.3
],
"lo": [
-1.7,
-3.8,
-2.8,
0.8,
4.8,
8.9,
12.4,
13.1,
8.9,
4.0,
0.1,
-2.1
],
"rain": [
81,
64,
41,
56,
49,
30,
4,
8,
30,
33,
85,
98
],
"rain_days": [
13,
12,
11,
10,
10,
6,
2,
2,
6,
5,
11,
15
]
},
"Bergen": {
"city": "Bergen",
"lat": 60.39,
"lon": 5.32,
"hi": [
3.3,
4.2,
5.9,
10.0,
11.8,
17.8,
17.2,
17.9,
14.8,
10.2,
6.2,
3.0
],
"lo": [
-1.0,
-1.0,
0.0,
1.3,
4.7,
9.9,
10.6,
11.1,
8.8,
5.1,
1.6,
-1.7
],
"rain": [
270,
244,
195,
75,
127,
126,
219,
217,
271,
313,
215,
240
],
"rain_days": [
23,
21,
19,
11,
16,
15,
20,
18,
18,
22,
17,
19
]
},
"Berlin": {
"city": "Berlin",
"lat": 52.52,
"lon": 13.4,
"hi": [
4.8,
7.1,
9.7,
13.6,
18.0,
25.7,
24.5,
25.2,
20.6,
15.3,
8.7,
4.9
],
"lo": [
0.4,
0.3,
1.3,
3.7,
8.3,
14.7,
15.1,
15.8,
11.6,
8.4,
3.5,
0.5
],
"rain": [
54,
58,
46,
28,
45,
53,
62,
60,
42,
58,
47,
57
],
"rain_days": [
13,
13,
12,
7,
9,
9,
11,
10,
7,
11,
11,
12
]
},
"Bhutan": {
"city": "Bhutan",
"lat": 27.4305,
"lon": 89.4133,
"hi": [
11.4,
11.8,
15.5,
18.2,
20.0,
22.6,
22.8,
23.2,
21.8,
20.0,
17.3,
14.1
],
"lo": [
2.8,
3.3,
6.7,
9.6,
12.2,
15.2,
16.2,
16.2,
14.8,
11.4,
7.4,
4.7
],
"rain": [
97,
198,
221,
230,
280,
392,
533,
392,
278,
139,
102,
108
],
"rain_days": [
16,
21,
27,
27,
28,
28,
31,
30,
27,
20,
13,
12
]
},
"Big Island": {
"city": "Big Island",
"lat": 19.6,
"lon": -155.5,
"hi": [
14.2,
12.7,
13.9,
14.2,
15.7,
17.0,
17.8,
17.7,
17.6,
17.5,
15.8,
14.5
],
"lo": [
4.9,
4.2,
5.5,
6.0,
7.1,
7.8,
8.4,
8.3,
8.3,
8.1,
7.1,
6.4
],
"rain": [
81,
111,
139,
122,
68,
29,
66,
62,
45,
65,
71,
79
],
"rain_days": [
8,
10,
14,
13,
11,
7,
5,
10,
11,
10,
11,
10
]
},
"Bilbao": {
"city": "Bilbao",
"lat": 43.26,
"lon": -2.93,
"hi": [
12,
15,
16,
18,
20,
24,
25,
26,
25,
22,
16,
14
],
"lo": [
5,
6,
8,
9,
11,
15,
16,
17,
16,
13,
9,
8
],
"rain": [
145,
74,
85,
89,
75,
79,
42,
51,
79,
115,
200,
156
],
"rain_days": [
15,
11,
15,
14,
13,
13,
8,
10,
12,
14,
18,
17
]
},
"Bologna": {
"city": "Bologna",
"lat": 44.49,
"lon": 11.34,
"hi": [
8.0,
12.1,
14.8,
17.7,
21.8,
29.0,
31.5,
31.0,
25.8,
20.7,
13.3,
8.9
],
"lo": [
0.6,
2.9,
4.6,
7.5,
12.7,
18.1,
20.4,
20.0,
16.1,
12.0,
6.7,
2.6
],
"rain": [
51,
30,
38,
65,
163,
52,
40,
53,
67,
52,
109,
84
],
"rain_days": [
7,
4,
6,
9,
13,
7,
7,
7,
9,
6,
11,
11
]
},
"Bora Bora": {
"city": "Bora Bora",
"lat": -16.5,
"lon": -151.742,
"hi": [
24.5,
24.8,
25.2,
25.2,
24.8,
24.1,
23.4,
23.1,
23.0,
23.5,
23.9,
24.3
],
"lo": [
22.4,
22.7,
23.2,
23.1,
23.0,
22.5,
21.9,
21.7,
21.7,
21.9,
22.1,
22.3
],
"rain": [
327,
179,
120,
153,
93,
115,
76,
76,
81,
175,
249,
271
],
"rain_days": [
26,
22,
23,
21,
19,
16,
18,
12,
15,
17,
23,
25
]
},
"Bordeaux": {
"city": "Bordeaux",
"lat": 44.8378,
"lon": -0.5792,
"hi": [
9.8,
13.7,
15.4,
18.0,
21.4,
25.0,
27.5,
27.6,
25.4,
20.5,
14.1,
11.7
],
"lo": [
3.3,
4.8,
6.3,
8.4,
11.5,
15.5,
16.9,
17.1,
15.1,
12.0,
7.3,
5.5
],
"rain": [
81,
56,
61,
74,
77,
148,
40,
48,
59,
108,
120,
127
],
"rain_days": [
11,
8,
11,
12,
11,
13,
7,
8,
10,
14,
15,
16
]
},
"Boston": {
"city": "Boston",
"lat": 42.36,
"lon": -71.06,
"hi": [
3.4,
4.5,
8.8,
13.2,
19.5,
25.0,
28.6,
27.7,
23.2,
17.5,
10.9,
6.2
],
"lo": [
-4.7,
-5.1,
-1.5,
4.0,
9.3,
15.2,
19.2,
18.6,
14.5,
9.3,
2.0,
-1.9
],
"rain": [
92,
89,
90,
108,
79,
89,
129,
88,
121,
141,
76,
143
],
"rain_days": [
10,
10,
11,
12,
12,
11,
11,
11,
10,
11,
8,
11
]
},
"Boulder": {
"city": "Boulder",
"lat": 40.02,
"lon": -105.27,
"hi": [
3.6,
2.0,
6.8,
13.6,
18.3,
25.4,
29.7,
29.1,
25.8,
16.1,
9.7,
5.9
],
"lo": [
-7.5,
-10.8,
-5.8,
-0.8,
5.1,
11.5,
15.4,
15.1,
10.7,
2.0,
-2.9,
-5.2
],
"rain": [
26,
32,
58,
43,
106,
48,
30,
22,
26,
27,
24,
24
],
"rain_days": [
6,
8,
8,
8,
13,
9,
6,
6,
6,
6,
4,
5
]
},
"Bruges": {
"city": "Bruges",
"lat": 51.21,
"lon": 3.22,
"hi": [
7.2,
9.7,
11.2,
13.6,
16.6,
21.7,
21.9,
22.7,
20.5,
16.1,
10.8,
8.1
],
"lo": [
2.6,
3.3,
4.0,
4.9,
8.3,
12.9,
14.0,
14.7,
12.6,
9.9,
5.7,
3.6
],
"rain": [
76,
57,
72,
41,
54,
87,
68,
76,
70,
103,
95,
97
],
"rain_days": [
14,
11,
14,
9,
10,
11,
12,
13,
12,
17,
16,
17
]
},
"Brussels": {
"city": "Brussels",
"lat": 50.85,
"lon": 4.35,
"hi": [
6.4,
9.3,
11.1,
14.1,
17.5,
22.8,
22.6,
23.5,
20.7,
15.9,
10.3,
7.5
],
"lo": [
1.8,
2.8,
3.5,
4.7,
8.1,
13.3,
13.9,
14.9,
12.3,
9.7,
5.2,
3.2
],
"rain": [
68,
68,
70,
39,
55,
78,
81,
54,
67,
101,
67,
81
],
"rain_days": [
13,
12,
13,
9,
11,
10,
11,
12,
11,
15,
14,
15
]
},
"Budapest": {
"city": "Budapest",
"lat": 47.5,
"lon": 19.04,
"hi": [
4.4,
8.5,
12.2,
16.1,
20.1,
26.4,
28.5,
28.2,
23.0,
17.3,
9.9,
5.2
],
"lo": [
-1.7,
-0.1,
1.8,
5.5,
10.6,
16.4,
17.9,
17.7,
13.1,
8.2,
3.6,
-0.2
],
"rain": [
39,
29,
28,
51,
93,
74,
64,
64,
61,
53,
66,
72
],
"rain_days": [
9,
8,
6,
11,
13,
10,
10,
10,
8,
8,
10,
10
]
},
"Buenos Aires": {
"city": "Buenos Aires",
"lat": -34.61,
"lon": -58.38,
"hi": [
28.3,
27.1,
25.1,
21.4,
17.6,
14.8,
14.1,
15.7,
17.7,
20.9,
25.0,
27.1
],
"lo": [
20.8,
19.2,
18.7,
14.9,
10.9,
8.5,
7.6,
8.5,
10.5,
12.9,
16.9,
19.0
],
"rain": [
98,
71,
140,
81,
61,
65,
56,
37,
64,
90,
74,
77
],
"rain_days": [
10,
6,
9,
7,
5,
7,
7,
4,
6,
8,
7,
8
]
},
"Cairo": {
"city": "Cairo",
"lat": 30.05,
"lon": 31.24,
"hi": [
19.6,
20.7,
24.3,
29.8,
34.9,
36.9,
38.9,
38.6,
36.5,
32.0,
27.3,
22.5
],
"lo": [
8.9,
9.1,
11.6,
14.8,
19.0,
21.6,
23.2,
23.8,
22.7,
19.6,
15.5,
11.5
],
"rain": [
4,
10,
14,
3,
0,
0,
0,
0,
0,
5,
2,
7
],
"rain_days": [
1,
2,
2,
1,
0,
0,
0,
0,
0,
1,
1,
2
]
},
"Cambridge": {
"city": "Cambridge",
"lat": 52.2053,
"lon": 0.1218,
"hi": [
7.4,
9.9,
11.1,
13.6,
16.7,
20.8,
22.4,
22.8,
20.5,
15.5,
10.8,
8.3
],
"lo": [
1.8,
3.2,
3.9,
4.1,
7.8,
11.8,
13.9,
14.0,
11.9,
9.0,
5.3,
3.4
],
"rain": [
48,
46,
50,
29,
52,
63,
73,
49,
56,
89,
62,
78
],
"rain_days": [
11,
10,
13,
8,
13,
10,
13,
9,
9,
13,
12,
15
]
},
"Cancun": {
"city": "Cancun",
"lat": 21.1619,
"lon": -86.8515,
"hi": [
26.2,
27.1,
28.0,
29.5,
30.1,
30.3,
31.4,
31.3,
30.7,
29.8,
28.0,
26.8
],
"lo": [
21.5,
22.8,
23.2,
24.2,
24.9,
25.5,
26.0,
25.7,
25.3,
24.5,
23.2,
22.0
],
"rain": [
88,
59,
34,
35,
87,
143,
72,
129,
123,
156,
134,
95
],
"rain_days": [
15,
13,
9,
7,
15,
17,
14,
17,
19,
22,
17,
15
]
},
"Cancún": {
"city": "Cancún",
"lat": 21.16,
"lon": -86.85,
"hi": [
26.2,
27.1,
28.0,
29.5,
30.1,
30.3,
31.4,
31.3,
30.7,
29.8,
28.0,
26.8
],
"lo": [
21.5,
22.8,
23.2,
24.2,
24.9,
25.5,
26.0,
25.7,
25.3,
24.5,
23.2,
22.0
],
"rain": [
88,
59,
34,
35,
87,
143,
72,
129,
123,
156,
134,
95
],
"rain_days": [
15,
13,
9,
7,
15,
17,
14,
17,
19,
22,
17,
15
]
},
"Cannes": {
"city": "Cannes",
"lat": 43.5528,
"lon": 7.0174,
"hi": [
12.5,
14.3,
15.8,
17.4,
21.4,
26.3,
29.4,
29.7,
26.2,
21.7,
17.0,
13.9
],
"lo": [
5.0,
6.5,
7.9,
10.1,
14.1,
18.9,
21.7,
21.6,
18.4,
14.5,
9.8,
6.9
],
"rain": [
44,
34,
25,
64,
62,
46,
17,
28,
46,
119,
145,
113
],
"rain_days": [
5,
4,
5,
7,
9,
5,
3,
4,
6,
7,
10,
9
]
},
"Cape Cod": {
"city": "Cape Cod",
"lat": 41.71,
"lon": -70.01,
"hi": [
4.6,
4.8,
7.2,
11.1,
15.6,
20.7,
25.3,
24.9,
21.3,
16.8,
11.5,
7.6
],
"lo": [
-0.7,
-1.0,
1.3,
5.6,
9.9,
15.4,
20.2,
20.2,
17.0,
12.3,
5.9,
2.3
],
"rain": [
134,
105,
96,
110,
94,
93,
83,
74,
120,
147,
78,
134
],
"rain_days": [
12,
11,
11,
11,
12,
11,
8,
9,
10,
12,
9,
12
]
},
"Capri": {
"city": "Capri",
"lat": 40.55,
"lon": 14.24,
"hi": [
12.8,
13.0,
13.3,
14.8,
18.3,
23.2,
26.3,
26.5,
24.6,
21.1,
18.3,
15.2
],
"lo": [
10.3,
10.7,
11.2,
12.7,
16.3,
21.0,
24.3,
24.6,
22.3,
18.9,
15.7,
13.1
],
"rain": [
113,
43,
64,
52,
68,
29,
9,
16,
77,
78,
238,
143
],
"rain_days": [
13,
6,
9,
9,
8,
3,
1,
3,
7,
9,
18,
14
]
},
"Carmel by the Sea": {
"city": "Carmel by the Sea",
"lat": 36.56,
"lon": -121.92,
"hi": [
14.4,
13.9,
13.6,
14.1,
15.2,
16.9,
16.6,
18.5,
19.4,
19.2,
16.6,
14.2
],
"lo": [
8.1,
7.3,
8.1,
9.1,
10.2,
11.7,
12.2,
13.6,
13.5,
12.0,
9.5,
8.5
],
"rain": [
108,
80,
109,
23,
32,
5,
1,
2,
10,
19,
52,
150
],
"rain_days": [
9,
7,
13,
3,
5,
1,
0,
0,
1,
2,
6,
12
]
},
"Cascais": {
"city": "Cascais",
"lat": 38.7,
"lon": -9.55,
"hi": [
14.6,
16.1,
17.0,
17.4,
20.1,
20.5,
22.5,
22.4,
22.7,
20.8,
17.6,
16.1
],
"lo": [
9.8,
10.9,
11.7,
13.0,
15.3,
16.4,
17.6,
17.8,
17.9,
16.3,
13.5,
12.2
],
"rain": [
52,
52,
47,
77,
31,
26,
6,
6,
46,
86,
87,
131
],
"rain_days": [
9,
7,
9,
12,
7,
7,
2,
2,
7,
11,
13,
14
]
},
"Cayman Islands": {
"city": "Cayman Islands",
"lat": 19.31,
"lon": -81.24,
"hi": [
27.6,
28.0,
28.3,
29.4,
30.0,
30.4,
31.3,
31.3,
31.0,
30.1,
28.9,
28.2
],
"lo": [
24.5,
24.6,
24.5,
25.2,
25.8,
26.6,
27.1,
27.0,
26.9,
26.4,
25.9,
25.2
],
"rain": [
30,
45,
64,
59,
101,
102,
63,
133,
105,
135,
124,
47
],
"rain_days": [
12,
17,
21,
18,
23,
20,
19,
20,
23,
23,
17,
15
]
},
"Charlotte": {
"city": "Charlotte",
"lat": 35.23,
"lon": -80.84,
"hi": [
10.9,
13.9,
17.6,
22.5,
26.5,
29.8,
32.2,
31.0,
28.1,
22.9,
16.3,
12.8
],
"lo": [
1.8,
3.6,
6.7,
10.1,
15.1,
18.9,
21.8,
21.1,
17.4,
12.4,
5.8,
3.1
],
"rain": [
122,
115,
92,
98,
82,
85,
81,
112,
90,
65,
78,
114
],
"rain_days": [
12,
11,
10,
8,
10,
12,
13,
16,
8,
8,
7,
10
]
},
"Chiang Mai": {
"city": "Chiang Mai",
"lat": 18.7883,
"lon": 98.9853,
"hi": [
27.5,
30.2,
34.3,
35.0,
34.1,
31.9,
30.6,
29.4,
29.4,
29.2,
29.1,
27.4
],
"lo": [
16.6,
17.7,
20.9,
23.1,
24.6,
24.2,
23.9,
23.6,
23.1,
22.2,
20.3,
17.1
],
"rain": [
20,
38,
12,
75,
191,
211,
328,
449,
395,
172,
55,
18
],
"rain_days": [
3,
2,
2,
8,
18,
26,
27,
30,
26,
18,
9,
2
]
},
"Chicago": {
"city": "Chicago",
"lat": 41.88,
"lon": -87.63,
"hi": [
0.3,
1.2,
7.8,
13.3,
18.7,
25.1,
27.3,
26.8,
23.7,
16.1,
9.1,
5.0
],
"lo": [
-6.5,
-7.3,
-0.7,
4.0,
9.8,
16.1,
19.3,
19.0,
16.0,
8.5,
1.1,
-2.1
],
"rain": [
66,
66,
89,
97,
136,
113,
156,
107,
122,
143,
42,
61
],
"rain_days": [
10,
11,
12,
15,
13,
11,
12,
12,
10,
14,
6,
8
]
},
"Chongqing": {
"city": "Chongqing",
"lat": 29.56,
"lon": 106.55,
"hi": [
11.2,
14.3,
19.4,
23.0,
25.9,
28.9,
31.6,
33.7,
28.1,
22.1,
17.7,
12.0
],
"lo": [
5.2,
7.4,
11.5,
14.9,
18.5,
21.9,
24.5,
25.7,
21.3,
16.4,
11.6,
6.6
],
"rain": [
32,
39,
109,
127,
183,
181,
277,
123,
176,
112,
54,
30
],
"rain_days": [
8,
9,
14,
16,
18,
16,
17,
12,
15,
16,
11,
7
]
},
"Cinque Terre": {
"city": "Cinque Terre",
"lat": 44.13,
"lon": 9.68,
"hi": [
11.7,
13.3,
14.7,
16.9,
20.5,
25.6,
28.5,
28.7,
25.3,
20.8,
16.3,
13.3
],
"lo": [
6.3,
7.3,
8.3,
10.4,
14.7,
19.4,
22.0,
22.1,
18.9,
15.4,
11.0,
8.2
],
"rain": [
121,
89,
63,
101,
145,
66,
46,
79,
126,
246,
203,
210
],
"rain_days": [
12,
9,
9,
12,
16,
9,
7,
10,
10,
12,
16,
16
]
},
"Coeur dAlene": {
"city": "Coeur dAlene",
"lat": 47.68,
"lon": -116.78,
"hi": [
1.1,
4.4,
9.4,
14.4,
19.4,
23.9,
29.4,
29.4,
23.3,
15.0,
6.1,
1.1
],
"lo": [
-5.6,
-3.3,
-0.6,
2.8,
6.7,
10.6,
13.9,
13.9,
9.4,
3.9,
-1.1,
-5.6
],
"rain": [
80,
60,
55,
45,
45,
35,
20,
20,
35,
55,
80,
90
],
"rain_days": [
13,
10,
10,
9,
9,
7,
4,
4,
6,
9,
13,
14
]
},
"Colmar": {
"city": "Colmar",
"lat": 48.08,
"lon": 7.36,
"hi": [
5.6,
9.9,
12.0,
15.0,
18.6,
24.7,
25.9,
25.4,
22.0,
17.0,
9.8,
7.1
],
"lo": [
0.0,
1.5,
2.9,
5.5,
9.2,
14.9,
15.5,
15.6,
12.4,
8.9,
3.9,
1.8
],
"rain": [
77,
67,
69,
59,
89,
75,
63,
76,
41,
75,
80,
92
],
"rain_days": [
12,
11,
11,
10,
13,
13,
11,
12,
8,
12,
14,
16
]
},
"Colombo": {
"city": "Colombo",
"lat": 6.9271,
"lon": 79.8612,
"hi": [
30.2,
30.9,
30.9,
30.7,
29.6,
29.0,
28.7,
28.4,
28.2,
28.3,
28.7,
29.3
],
"lo": [
22.6,
23.2,
23.9,
24.6,
25.5,
25.4,
25.3,
25.1,
24.6,
24.0,
23.3,
23.0
],
"rain": [
97,
57,
104,
146,
334,
293,
223,
272,
352,
381,
419,
204
],
"rain_days": [
14,
11,
19,
23,
29,
29,
27,
29,
29,
30,
25,
21
]
},
"Columbia": {
"city": "Columbia",
"lat": 34.0,
"lon": -81.03,
"hi": [
13.8,
16.8,
20.3,
24.4,
28.3,
30.8,
32.8,
31.8,
29.5,
24.7,
18.3,
15.1
],
"lo": [
4.1,
6.0,
8.8,
11.5,
16.5,
20.3,
22.9,
22.4,
18.9,
13.9,
7.7,
5.0
],
"rain": [
127,
109,
97,
109,
88,
110,
110,
116,
102,
63,
61,
127
],
"rain_days": [
11,
10,
10,
8,
8,
13,
15,
14,
8,
8,
8,
10
]
},
"Copenhagen": {
"city": "Copenhagen",
"lat": 55.68,
"lon": 12.57,
"hi": [
4.8,
5.5,
7.1,
10.4,
14.2,
20.0,
20.3,
20.7,
17.7,
13.2,
8.6,
4.9
],
"lo": [
1.6,
1.4,
1.8,
3.7,
8.0,
13.4,
14.7,
15.1,
12.9,
9.5,
5.9,
2.1
],
"rain": [
63,
57,
49,
29,
52,
39,
65,
66,
59,
83,
56,
66
],
"rain_days": [
13,
12,
11,
7,
11,
8,
13,
12,
12,
15,
13,
14
]
},
"Corfu": {
"city": "Corfu",
"lat": 39.62,
"lon": 19.92,
"hi": [
12.9,
14.2,
15.2,
17.6,
22.2,
27.8,
32.0,
31.6,
27.4,
22.9,
18.9,
15.3
],
"lo": [
8.6,
9.0,
9.9,
12.0,
16.0,
20.7,
23.8,
24.2,
21.5,
17.8,
14.7,
11.5
],
"rain": [
225,
90,
107,
85,
71,
33,
8,
38,
76,
203,
326,
281
],
"rain_days": [
15,
7,
9,
11,
9,
3,
1,
3,
8,
10,
17,
15
]
},
"Curaçao": {
"city": "Curaçao",
"lat": 12.11,
"lon": -68.97,
"hi": [
28.9,
29.0,
29.3,
30.1,
30.7,
30.8,
30.8,
31.6,
32.2,
31.1,
29.6,
29.4
],
"lo": [
24.8,
24.8,
24.9,
25.5,
26.3,
26.4,
26.4,
26.9,
27.3,
26.6,
25.7,
25.5
],
"rain": [
39,
34,
34,
24,
24,
46,
40,
50,
44,
73,
100,
54
],
"rain_days": [
15,
13,
13,
8,
6,
14,
14,
12,
8,
18,
22,
20
]
},
"Curitiba": {
"city": "Curitiba",
"lat": -25.4284,
"lon": -49.2654,
"hi": [
25.3,
24.8,
24.5,
22.1,
20.1,
19.0,
19.1,
19.6,
22.0,
22.5,
23.2,
24.9
],
"lo": [
17.7,
16.9,
16.7,
14.1,
11.5,
10.8,
9.4,
10.4,
12.6,
13.8,
14.4,
16.5
],
"rain": [
190,
152,
122,
67,
98,
108,
39,
105,
124,
166,
117,
134
],
"rain_days": [
25,
21,
20,
11,
10,
8,
6,
10,
11,
17,
17,
19
]
},
"Cusco": {
"city": "Cusco",
"lat": -13.525,
"lon": -71.978,
"hi": [
16.2,
16.0,
15.9,
16.4,
16.6,
17.1,
18.0,
18.5,
18.4,
18.6,
18.3,
17.0
],
"lo": [
7.5,
8.1,
7.4,
6.6,
5.5,
4.5,
4.4,
5.0,
6.1,
7.2,
7.9,
8.2
],
"rain": [
223,
187,
154,
72,
36,
5,
9,
18,
34,
71,
135,
196
],
"rain_days": [
28,
27,
26,
17,
9,
1,
3,
6,
11,
19,
24,
28
]
},
"Dallas": {
"city": "Dallas",
"lat": 32.78,
"lon": -96.8,
"hi": [
14.1,
14.3,
20.4,
23.8,
27.9,
32.4,
35.1,
35.6,
32.4,
25.7,
19.0,
16.5
],
"lo": [
4.0,
3.6,
9.7,
13.1,
18.3,
22.6,
25.3,
25.7,
22.2,
15.0,
8.8,
6.4
],
"rain": [
73,
111,
147,
154,
223,
124,
75,
104,
78,
177,
110,
70
],
"rain_days": [
7,
10,
12,
11,
14,
11,
10,
8,
8,
9,
8,
8
]
},
"Denver": {
"city": "Denver",
"lat": 39.74,
"lon": -104.99,
"hi": [
5.0,
4.1,
9.5,
16.0,
20.7,
27.7,
31.9,
31.4,
28.3,
18.3,
11.8,
7.4
],
"lo": [
-8.9,
-11.5,
-5.8,
-0.2,
5.8,
11.9,
16.2,
15.6,
11.0,
2.0,
-3.2,
-6.5
],
"rain": [
22,
24,
53,
35,
88,
51,
30,
30,
20,
22,
15,
18
],
"rain_days": [
5,
6,
9,
7,
11,
8,
6,
6,
4,
4,
4,
4
]
},
"Doha": {
"city": "Doha",
"lat": 25.2854,
"lon": 51.531,
"hi": [
22.1,
23.6,
27.2,
31.8,
37.2,
41.3,
40.9,
41.1,
39.1,
35.5,
29.9,
25.2
],
"lo": [
14.6,
15.4,
18.1,
22.0,
26.4,
29.6,
31.1,
31.2,
28.9,
25.9,
21.7,
17.4
],
"rain": [
35,
2,
6,
10,
0,
0,
4,
0,
0,
1,
5,
13
],
"rain_days": [
4,
1,
1,
1,
0,
0,
1,
0,
0,
0,
2,
2
]
},
"Dubai": {
"city": "Dubai",
"lat": 25.2048,
"lon": 55.2708,
"hi": [
23.8,
25.1,
28.5,
32.3,
35.9,
39.4,
40.4,
40.7,
39.0,
35.2,
30.5,
26.4
],
"lo": [
15.2,
16.3,
19.0,
21.9,
25.1,
28.5,
31.1,
30.4,
28.0,
24.5,
21.0,
17.5
],
"rain": [
42,
5,
7,
5,
0,
0,
5,
0,
0,
2,
8,
10
],
"rain_days": [
4,
1,
2,
1,
0,
0,
1,
0,
0,
0,
1,
1
]
},
"Dublin": {
"city": "Dublin",
"lat": 53.33,
"lon": -6.27,
"hi": [
7.7,
9.3,
10.3,
11.8,
15.0,
17.6,
19.3,
18.8,
17.2,
13.6,
10.1,
8.1
],
"lo": [
3.0,
4.0,
3.8,
4.7,
7.6,
10.5,
12.5,
12.3,
10.8,
8.3,
5.5,
3.7
],
"rain": [
57,
81,
79,
66,
65,
85,
94,
92,
98,
122,
82,
88
],
"rain_days": [
11,
14,
15,
13,
14,
16,
15,
15,
13,
17,
13,
14
]
},
"Dubrovnik": {
"city": "Dubrovnik",
"lat": 42.6507,
"lon": 18.0944,
"hi": [
11.0,
12.7,
14.2,
16.7,
21.4,
26.8,
30.1,
30.0,
26.1,
21.7,
17.2,
13.5
],
"lo": [
3.4,
4.5,
6.1,
8.9,
13.9,
18.8,
21.3,
21.5,
17.9,
13.4,
10.5,
7.0
],
"rain": [
215,
133,
124,
173,
160,
49,
41,
67,
161,
171,
434,
304
],
"rain_days": [
13,
7,
9,
13,
12,
6,
3,
6,
8,
9,
17,
16
]
},
"Edinburgh": {
"city": "Edinburgh",
"lat": 55.95,
"lon": -3.19,
"hi": [
6.5,
7.9,
8.9,
10.7,
13.6,
16.8,
18.5,
18.0,
16.5,
12.4,
9.1,
6.7
],
"lo": [
2.5,
3.1,
3.2,
3.8,
6.9,
10.3,
12.3,
12.1,
10.5,
7.8,
4.8,
2.8
],
"rain": [
63,
86,
77,
38,
74,
71,
97,
92,
88,
132,
89,
107
],
"rain_days": [
12,
14,
15,
10,
16,
14,
17,
15,
13,
18,
16,
16
]
},
"Florence": {
"city": "Florence",
"lat": 43.77,
"lon": 11.26,
"hi": [
10.4,
13.5,
15.5,
18.4,
22.4,
29.2,
32.5,
32.1,
27.4,
22.0,
15.8,
12.4
],
"lo": [
2.0,
3.3,
4.5,
6.8,
11.8,
16.4,
19.0,
19.3,
15.6,
11.9,
8.0,
4.6
],
"rain": [
74,
52,
48,
85,
98,
70,
32,
64,
120,
100,
156,
154
],
"rain_days": [
10,
7,
6,
11,
15,
7,
5,
7,
9,
10,
15,
16
]
},
"Florianópolis": {
"city": "Florianópolis",
"lat": -27.5954,
"lon": -48.548,
"hi": [
28.8,
28.2,
27.6,
25.2,
23.0,
21.6,
20.5,
20.9,
22.2,
23.4,
24.8,
27.1
],
"lo": [
22.8,
21.7,
21.7,
18.9,
16.2,
14.7,
13.6,
14.3,
16.2,
17.8,
19.0,
21.0
],
"rain": [
168,
163,
134,
81,
123,
126,
58,
92,
97,
180,
160,
143
],
"rain_days": [
21,
17,
20,
12,
10,
10,
7,
9,
13,
18,
15,
15
]
},
"Florida Keys": {
"city": "Florida Keys",
"lat": 24.71,
"lon": -80.9,
"hi": [
23.4,
24.4,
24.8,
26.2,
27.2,
28.9,
29.9,
30.0,
29.4,
28.2,
26.3,
24.6
],
"lo": [
20.8,
22.5,
23.1,
24.3,
25.3,
26.4,
27.6,
27.9,
27.3,
26.1,
24.2,
22.2
],
"rain": [
38,
33,
27,
42,
118,
140,
98,
101,
163,
111,
82,
83
],
"rain_days": [
8,
6,
5,
9,
12,
18,
18,
17,
17,
18,
11,
11
]
},
"Fortaleza": {
"city": "Fortaleza",
"lat": -3.72,
"lon": -38.54,
"hi": [
29.4,
29.4,
28.9,
29.2,
29.5,
29.5,
29.9,
30.5,
30.5,
30.7,
30.8,
30.8
],
"lo": [
24.8,
24.7,
24.1,
24.1,
24.3,
23.8,
23.8,
24.3,
25.0,
25.5,
25.9,
25.9
],
"rain": [
158,
203,
341,
267,
167,
99,
53,
17,
10,
14,
22,
36
],
"rain_days": [
23,
24,
29,
27,
22,
16,
13,
5,
3,
5,
10,
12
]
},
"Foz do Iguaçu": {
"city": "Foz do Iguaçu",
"lat": -25.5469,
"lon": -54.5854,
"hi": [
31.3,
30.5,
30.0,
27.0,
23.4,
22.4,
22.4,
24.6,
27.6,
28.9,
30.4,
31.5
],
"lo": [
23.1,
21.2,
20.7,
17.5,
14.5,
13.9,
12.9,
14.2,
17.2,
18.8,
19.7,
21.6
],
"rain": [
203,
132,
152,
102,
144,
109,
69,
84,
103,
233,
126,
152
],
"rain_days": [
17,
12,
13,
8,
10,
9,
6,
6,
8,
12,
10,
13
]
},
"Geneva": {
"city": "Geneva",
"lat": 46.2,
"lon": 6.14,
"hi": [
5.2,
9.1,
11.6,
14.8,
18.3,
24.4,
26.9,
26.4,
22.2,
16.6,
9.6,
6.7
],
"lo": [
-0.4,
1.0,
2.8,
5.4,
9.5,
15.0,
16.9,
16.6,
13.7,
9.2,
4.0,
1.1
],
"rain": [
85,
67,
86,
76,
102,
95,
88,
72,
76,
133,
124,
167
],
"rain_days": [
11,
8,
10,
9,
12,
13,
10,
9,
9,
12,
15,
16
]
},
"Glacier National Park": {
"city": "Glacier National Park",
"lat": 48.6,
"lon": -113.9,
"hi": [
0.5,
-1.5,
5.2,
10.2,
16.8,
21.5,
27.0,
26.3,
20.4,
11.6,
4.3,
0.5
],
"lo": [
-7.0,
-10.9,
-6.5,
-2.3,
3.1,
7.8,
11.1,
11.9,
8.1,
1.5,
-3.0,
-5.9
],
"rain": [
55,
62,
37,
55,
71,
78,
16,
40,
44,
61,
71,
68
],
"rain_days": [
13,
14,
9,
13,
12,
12,
4,
6,
8,
10,
13,
15
]
},
"Glasgow": {
"city": "Glasgow",
"lat": 55.86,
"lon": -4.25,
"hi": [
6.4,
7.8,
9.2,
11.9,
14.4,
18.0,
18.6,
18.4,
16.6,
12.3,
9.0,
6.5
],
"lo": [
1.6,
2.5,
2.5,
3.3,
6.5,
10.2,
11.8,
11.5,
9.8,
7.1,
3.9,
2.0
],
"rain": [
106,
140,
107,
41,
76,
94,
122,
129,
115,
172,
103,
135
],
"rain_days": [
15,
18,
16,
9,
15,
17,
17,
17,
16,
19,
16,
20
]
},
"Gothenburg": {
"city": "Gothenburg",
"lat": 57.7,
"lon": 11.97,
"hi": [
3.6,
4.1,
6.2,
11.1,
14.1,
20.2,
19.6,
19.8,
16.7,
11.6,
6.9,
2.9
],
"lo": [
-0.5,
-1.0,
-0.4,
1.8,
6.3,
12.1,
13.5,
13.4,
10.8,
7.2,
3.2,
-1.0
],
"rain": [
88,
95,
87,
33,
80,
61,
121,
111,
104,
137,
82,
91
],
"rain_days": [
15,
14,
12,
7,
14,
11,
18,
17,
12,
20,
15,
16
]
},
"Hamburg": {
"city": "Hamburg",
"lat": 53.55,
"lon": 9.99,
"hi": [
5.7,
7.6,
9.7,
13.0,
16.7,
23.6,
22.5,
23.7,
19.6,
14.9,
8.9,
5.5
],
"lo": [
1.5,
1.4,
1.9,
3.5,
7.5,
13.2,
14.1,
14.7,
11.5,
8.8,
4.4,
1.6
],
"rain": [
72,
83,
60,
41,
65,
57,
83,
75,
61,
90,
63,
83
],
"rain_days": [
13,
14,
12,
9,
13,
9,
14,
14,
10,
15,
15,
16
]
},
"Hanoi": {
"city": "Hanoi",
"lat": 21.0285,
"lon": 105.8542,
"hi": [
21.2,
23.0,
26.1,
28.2,
31.5,
33.6,
33.3,
31.7,
30.8,
27.9,
26.4,
21.6
],
"lo": [
13.9,
16.0,
19.2,
21.3,
24.6,
26.8,
26.7,
25.8,
24.7,
21.7,
19.1,
14.1
],
"rain": [
51,
78,
84,
122,
197,
228,
236,
449,
362,
221,
65,
22
],
"rain_days": [
12,
12,
14,
15,
17,
17,
19,
25,
21,
15,
8,
6
]
},
"Helsinki": {
"city": "Helsinki",
"lat": 60.17,
"lon": 25.0,
"hi": [
0.0,
0.3,
2.2,
7.8,
12.8,
20.1,
20.8,
19.9,
14.9,
9.5,
4.5,
0.3
],
"lo": [
-4.6,
-4.8,
-3.5,
0.3,
5.2,
12.5,
13.9,
13.8,
9.6,
5.2,
1.0,
-3.6
],
"rain": [
84,
68,
54,
31,
66,
48,
79,
96,
63,
92,
78,
70
],
"rain_days": [
17,
12,
12,
7,
11,
8,
12,
13,
11,
15,
14,
15
]
},
"Hilton Head Island": {
"city": "Hilton Head Island",
"lat": 32.1607,
"lon": -80.7401,
"hi": [
15.2,
17.3,
20.1,
23.1,
26.6,
29.3,
30.9,
30.1,
28.1,
24.8,
19.4,
16.6
],
"lo": [
8.5,
10.6,
13.4,
16.1,
20.3,
23.5,
25.2,
25.1,
22.6,
18.6,
12.7,
10.0
],
"rain": [
70,
90,
94,
89,
56,
115,
105,
153,
147,
78,
84,
105
],
"rain_days": [
8,
11,
9,
9,
11,
14,
17,
20,
14,
8,
8,
9
]
},
"Hoi An": {
"city": "Hoi An",
"lat": 15.8801,
"lon": 108.338,
"hi": [
23.9,
25.2,
28.0,
29.9,
32.6,
35.0,
33.8,
33.8,
30.6,
28.1,
26.8,
24.3
],
"lo": [
19.8,
20.2,
22.5,
24.2,
25.8,
27.1,
26.6,
26.8,
25.3,
24.2,
23.0,
20.8
],
"rain": [
174,
70,
47,
93,
89,
52,
114,
149,
321,
620,
378,
341
],
"rain_days": [
20,
12,
8,
10,
13,
10,
13,
19,
23,
27,
25,
25
]
},
"Hong Kong": {
"city": "Hong Kong",
"lat": 22.3,
"lon": 114.16,
"hi": [
18.7,
19.8,
22.4,
24.2,
26.8,
28.6,
29.7,
29.2,
29.1,
26.6,
24.3,
19.9
],
"lo": [
13.1,
14.4,
17.9,
20.1,
23.5,
25.6,
26.4,
25.7,
25.0,
21.9,
18.7,
13.2
],
"rain": [
17,
70,
108,
114,
298,
348,
285,
386,
293,
231,
66,
27
],
"rain_days": [
5,
8,
15,
16,
24,
29,
27,
27,
22,
12,
5,
4
]
},
"Istanbul": {
"city": "Istanbul",
"lat": 41.01,
"lon": 28.98,
"hi": [
9.7,
10.1,
11.4,
15.8,
21.5,
25.6,
28.8,
29.5,
25.6,
21.0,
17.0,
12.7
],
"lo": [
4.1,
3.9,
4.7,
8.0,
13.0,
17.9,
20.3,
21.3,
17.9,
14.2,
10.6,
7.2
],
"rain": [
99,
84,
77,
68,
53,
65,
33,
26,
32,
52,
90,
66
],
"rain_days": [
12,
11,
11,
11,
8,
10,
4,
4,
5,
7,
9,
12
]
},
"João Pessoa": {
"city": "João Pessoa",
"lat": -7.12,
"lon": -34.87,
"hi": [
29.5,
29.6,
29.1,
28.9,
28.2,
27.3,
26.8,
26.8,
27.4,
28.5,
29.3,
29.5
],
"lo": [
24.9,
25.3,
24.8,
24.7,
24.3,
23.3,
22.8,
22.7,
23.3,
24.1,
24.9,
25.0
],
"rain": [
81,
105,
151,
123,
175,
220,
163,
83,
69,
45,
42,
54
],
"rain_days": [
21,
19,
24,
23,
24,
22,
24,
21,
19,
18,
15,
19
]
},
"Kauai": {
"city": "Kauai",
"lat": 22.05,
"lon": -159.5,
"hi": [
18.0,
17.1,
17.6,
18.5,
19.4,
20.5,
20.8,
21.5,
21.4,
20.8,
19.4,
18.0
],
"lo": [
10.2,
10.1,
10.7,
11.3,
12.3,
13.5,
14.3,
14.2,
14.3,
13.6,
12.8,
11.8
],
"rain": [
174,
187,
265,
192,
206,
182,
179,
140,
131,
184,
163,
268
],
"rain_days": [
19,
22,
25,
26,
28,
25,
30,
27,
26,
26,
26,
25
]
},
"Key West": {
"city": "Key West",
"lat": 24.55,
"lon": -81.8,
"hi": [
22.7,
23.9,
24.6,
26.1,
27.3,
28.8,
29.8,
30.0,
29.4,
28.0,
26.0,
24.0
],
"lo": [
20.4,
21.9,
22.9,
24.3,
25.3,
26.5,
27.5,
27.7,
27.1,
26.0,
24.1,
21.9
],
"rain": [
37,
34,
46,
40,
86,
139,
130,
128,
170,
116,
92,
78
],
"rain_days": [
6,
6,
6,
8,
12,
17,
18,
17,
19,
17,
9,
9
]
},
"Kotor": {
"city": "Kotor",
"lat": 42.4247,
"lon": 18.7715,
"hi": [
11.1,
12.6,
14.0,
16.5,
21.2,
26.2,
29.6,
29.6,
25.7,
21.4,
17.6,
13.9
],
"lo": [
5.2,
6.1,
7.5,
10.1,
14.8,
20.0,
22.7,
22.9,
19.5,
15.4,
12.0,
8.6
],
"rain": [
280,
170,
145,
200,
165,
62,
41,
84,
160,
184,
443,
371
],
"rain_days": [
13,
8,
9,
14,
13,
6,
3,
7,
8,
10,
15,
14
]
},
"Kraków": {
"city": "Kraków",
"lat": 50.0647,
"lon": 19.945,
"hi": [
3.1,
6.2,
9.8,
13.3,
17.7,
24.5,
25.1,
25.1,
20.1,
15.8,
8.7,
3.9
],
"lo": [
-2.4,
-1.5,
-0.1,
3.1,
7.9,
14.2,
15.3,
15.6,
11.0,
6.9,
2.3,
-1.5
],
"rain": [
54,
56,
36,
61,
100,
62,
104,
110,
89,
58,
50,
55
],
"rain_days": [
11,
13,
12,
11,
16,
12,
14,
13,
11,
10,
10,
11
]
},
"Kyoto": {
"city": "Kyoto",
"lat": 35.0116,
"lon": 135.7681,
"hi": [
8.3,
9.4,
14.5,
18.1,
23.2,
26.8,
29.7,
32.0,
28.4,
21.9,
16.8,
10.8
],
"lo": [
-0.8,
-0.0,
3.6,
7.3,
12.7,
17.9,
22.3,
24.0,
20.6,
12.7,
6.8,
1.2
],
"rain": [
51,
55,
118,
163,
183,
228,
324,
218,
164,
175,
71,
60
],
"rain_days": [
8,
7,
12,
10,
12,
14,
19,
13,
14,
9,
7,
7
]
},
"La Jolla": {
"city": "La Jolla",
"lat": 32.84,
"lon": -117.27,
"hi": [
17.5,
17.5,
17.2,
19.4,
20.1,
22.3,
24.5,
25.9,
25.8,
24.2,
21.1,
17.7
],
"lo": [
8.7,
8.4,
9.8,
12.4,
14.0,
16.0,
18.2,
19.1,
18.5,
15.1,
11.4,
9.3
],
"rain": [
63,
45,
66,
36,
13,
3,
5,
11,
20,
8,
32,
72
],
"rain_days": [
6,
6,
10,
5,
4,
1,
1,
1,
2,
2,
4,
7
]
},
"Lagos": {
"city": "Lagos",
"lat": 37.1,
"lon": -8.67,
"hi": [
16.1,
17.6,
19.0,
20.5,
24.7,
26.1,
29.4,
29.7,
26.8,
24.3,
19.7,
17.5
],
"lo": [
9.2,
10.6,
11.3,
12.7,
15.5,
16.9,
18.8,
19.1,
18.3,
16.4,
13.0,
11.5
],
"rain": [
28,
34,
51,
47,
15,
14,
1,
1,
25,
53,
56,
83
],
"rain_days": [
4,
5,
8,
9,
4,
5,
0,
0,
4,
6,
7,
11
]
},
"Lake Como": {
"city": "Lake Como",
"lat": 45.81,
"lon": 9.08,
"hi": [
9.0,
12.0,
14.0,
16.7,
20.6,
26.3,
28.4,
27.7,
23.3,
18.7,
12.8,
9.3
],
"lo": [
1.5,
2.9,
4.6,
7.6,
12.4,
17.5,
20.0,
19.9,
16.3,
12.2,
6.6,
3.2
],
"rain": [
43,
33,
52,
136,
164,
142,
152,
197,
135,
224,
149,
114
],
"rain_days": [
6,
4,
7,
10,
18,
14,
11,
13,
11,
10,
12,
9
]
},
"Lake Tahoe": {
"city": "Lake Tahoe",
"lat": 39.1,
"lon": -120.03,
"hi": [
2.9,
2.9,
4.0,
9.6,
14.1,
21.0,
27.0,
26.3,
21.7,
15.4,
8.1,
3.7
],
"lo": [
-3.9,
-4.9,
-3.3,
0.2,
4.1,
9.5,
14.6,
14.9,
11.2,
5.3,
-0.3,
-3.0
],
"rain": [
110,
105,
87,
37,
36,
11,
1,
11,
33,
48,
44,
174
],
"rain_days": [
9,
9,
12,
6,
8,
3,
0,
2,
4,
3,
6,
12
]
},
"Las Vegas": {
"city": "Las Vegas",
"lat": 36.17,
"lon": -115.14,
"hi": [
14.2,
16.4,
20.1,
27.5,
31.5,
37.5,
41.3,
39.8,
35.7,
27.8,
19.8,
14.0
],
"lo": [
3.7,
4.5,
8.7,
14.2,
18.2,
23.8,
27.9,
26.5,
22.3,
14.6,
8.4,
4.1
],
"rain": [
17,
15,
19,
3,
2,
4,
5,
20,
13,
3,
15,
13
],
"rain_days": [
3,
3,
6,
1,
1,
0,
1,
3,
1,
1,
2,
3
]
},
"Lecce": {
"city": "Lecce",
"lat": 40.35,
"lon": 18.17,
"hi": [
13.0,
14.5,
15.8,
18.5,
23.5,
29.3,
32.2,
31.9,
28.2,
23.4,
19.2,
15.5
],
"lo": [
6.5,
7.0,
7.5,
9.9,
14.4,
19.4,
22.0,
22.5,
19.7,
15.2,
12.4,
8.8
],
"rain": [
50,
39,
56,
75,
70,
34,
21,
21,
45,
56,
121,
58
],
"rain_days": [
8,
6,
7,
11,
9,
6,
3,
4,
7,
8,
13,
9
]
},
"Lille": {
"city": "Lille",
"lat": 50.63,
"lon": 3.06,
"hi": [
6.9,
9.7,
11.6,
14.3,
17.6,
22.6,
22.9,
23.5,
21.1,
16.3,
10.8,
8.0
],
"lo": [
1.9,
3.0,
3.8,
4.7,
8.2,
13.0,
13.9,
14.7,
12.5,
9.7,
5.6,
3.4
],
"rain": [
71,
56,
68,
41,
54,
80,
62,
59,
59,
102,
76,
86
],
"rain_days": [
13,
11,
14,
9,
9,
11,
10,
11,
10,
15,
14,
15
]
},
"Lima": {
"city": "Lima",
"lat": -12.0464,
"lon": -77.0428,
"hi": [
23.9,
25.0,
24.8,
23.3,
21.0,
19.5,
18.8,
18.3,
18.5,
19.0,
20.3,
22.2
],
"lo": [
19.7,
20.6,
20.4,
18.9,
16.7,
15.1,
14.3,
13.9,
14.2,
14.7,
15.9,
18.0
],
"rain": [
11,
10,
15,
1,
1,
0,
0,
0,
2,
1,
1,
9
],
"rain_days": [
3,
3,
5,
0,
0,
0,
0,
0,
0,
0,
0,
2
]
},
"Lisbon": {
"city": "Lisbon",
"lat": 38.72,
"lon": -9.14,
"hi": [
14.4,
16.7,
18.2,
19.4,
23.8,
24.6,
28.4,
28.1,
26.0,
23.3,
18.1,
16.1
],
"lo": [
8.4,
9.3,
10.5,
11.9,
14.9,
16.1,
18.1,
18.3,
17.7,
15.5,
12.2,
10.7
],
"rain": [
34,
48,
45,
74,
23,
17,
1,
2,
52,
85,
71,
117
],
"rain_days": [
6,
6,
7,
10,
4,
5,
0,
1,
6,
10,
10,
10
]
},
"Ljubljana": {
"city": "Ljubljana",
"lat": 46.05,
"lon": 14.51,
"hi": [
5.4,
9.6,
12.2,
15.2,
18.8,
26.2,
27.9,
26.6,
22.2,
17.6,
10.3,
5.9
],
"lo": [
-3.2,
-1.7,
-0.2,
3.3,
8.6,
14.3,
15.7,
15.6,
11.3,
7.5,
2.8,
-0.7
],
"rain": [
76,
57,
64,
84,
164,
74,
108,
110,
119,
115,
146,
135
],
"rain_days": [
9,
6,
9,
9,
17,
11,
11,
11,
11,
9,
12,
12
]
},
"London": {
"city": "London",
"lat": 51.51,
"lon": -0.13,
"hi": [
7.7,
10.0,
11.4,
14.0,
17.2,
21.2,
22.7,
22.8,
20.6,
15.8,
11.2,
8.8
],
"lo": [
1.6,
3.1,
3.9,
4.3,
7.9,
11.9,
13.9,
14.1,
12.0,
9.0,
5.2,
3.5
],
"rain": [
56,
54,
54,
35,
52,
74,
62,
52,
54,
112,
78,
79
],
"rain_days": [
11,
11,
13,
8,
11,
12,
11,
8,
10,
16,
13,
13
]
},
"Los Angeles": {
"city": "Los Angeles",
"lat": 34.05,
"lon": -118.24,
"hi": [
18.6,
19.8,
19.9,
23.9,
24.6,
27.7,
30.8,
31.7,
30.9,
28.2,
23.8,
18.8
],
"lo": [
7.7,
7.4,
9.0,
11.6,
13.2,
15.3,
17.0,
17.9,
17.8,
14.9,
10.7,
8.4
],
"rain": [
98,
53,
98,
23,
14,
10,
2,
18,
18,
6,
28,
127
],
"rain_days": [
7,
4,
10,
3,
3,
1,
0,
1,
2,
1,
2,
7
]
},
"Los Cabos": {
"city": "Los Cabos",
"lat": 22.8906,
"lon": -109.9167,
"hi": [
25.4,
25.2,
27.3,
28.7,
29.7,
31.4,
32.7,
32.4,
31.9,
31.0,
28.9,
26.5
],
"lo": [
16.4,
16.1,
17.5,
19.2,
20.5,
23.8,
26.1,
26.6,
25.9,
23.8,
21.0,
17.6
],
"rain": [
6,
9,
0,
0,
0,
10,
15,
92,
71,
50,
24,
3
],
"rain_days": [
1,
0,
0,
0,
0,
2,
3,
8,
6,
4,
2,
0
]
},
"Luang Prabang": {
"city": "Luang Prabang",
"lat": 19.89,
"lon": 102.13,
"hi": [
28.3,
30.9,
34.1,
34.0,
34.6,
33.1,
32.6,
30.3,
30.5,
30.0,
30.4,
28.2
],
"lo": [
16.0,
17.3,
20.5,
22.2,
24.5,
24.9,
24.6,
24.0,
23.6,
21.9,
19.9,
16.1
],
"rain": [
29,
29,
39,
88,
157,
199,
253,
396,
215,
92,
26,
16
],
"rain_days": [
4,
3,
6,
10,
18,
24,
24,
28,
23,
13,
7,
3
]
},
"Lucerne": {
"city": "Lucerne",
"lat": 47.05,
"lon": 8.31,
"hi": [
4.9,
9.0,
11.1,
14.1,
17.4,
23.8,
24.7,
23.9,
20.7,
16.2,
9.1,
6.2
],
"lo": [
-0.5,
0.3,
1.5,
4.3,
8.5,
14.1,
16.3,
16.0,
13.1,
9.2,
4.1,
0.9
],
"rain": [
88,
80,
82,
122,
152,
139,
211,
169,
119,
135,
128,
152
],
"rain_days": [
14,
12,
13,
13,
18,
15,
17,
15,
13,
14,
16,
17
]
},
"Luxembourg": {
"city": "Luxembourg",
"lat": 49.61,
"lon": 6.13,
"hi": [
4.5,
7.9,
10.0,
13.3,
16.8,
22.9,
23.3,
23.6,
20.2,
14.8,
8.5,
5.9
],
"lo": [
0.1,
1.1,
2.0,
3.7,
7.6,
13.0,
13.5,
14.4,
11.0,
8.2,
3.6,
1.9
],
"rain": [
89,
75,
79,
55,
63,
58,
71,
67,
65,
114,
89,
94
],
"rain_days": [
14,
12,
13,
10,
11,
9,
10,
12,
9,
15,
15,
18
]
},
"Lyon": {
"city": "Lyon",
"lat": 45.764,
"lon": 4.8357,
"hi": [
6.3,
11.1,
13.6,
16.8,
20.6,
26.5,
28.6,
28.0,
24.3,
18.5,
11.2,
8.2
],
"lo": [
0.4,
1.7,
3.7,
6.3,
10.6,
15.6,
17.3,
16.8,
13.8,
10.2,
4.8,
2.5
],
"rain": [
50,
32,
52,
52,
85,
98,
59,
63,
62,
124,
81,
102
],
"rain_days": [
11,
7,
8,
10,
11,
12,
7,
7,
8,
11,
13,
15
]
},
"Maceió": {
"city": "Maceió",
"lat": -9.6658,
"lon": -35.7353,
"hi": [
28.5,
29.1,
28.7,
28.4,
27.6,
26.5,
26.0,
26.0,
26.6,
27.9,
28.8,
28.8
],
"lo": [
24.7,
25.1,
25.0,
24.8,
24.4,
23.5,
22.8,
22.7,
23.1,
23.7,
24.3,
24.4
],
"rain": [
77,
60,
172,
115,
212,
229,
161,
151,
84,
63,
78,
78
],
"rain_days": [
23,
19,
26,
23,
26,
28,
29,
28,
23,
22,
16,
20
]
},
"MachuPicchu": {
"city": "MachuPicchu",
"lat": -13.163,
"lon": -72.545,
"hi": [
17.9,
18.0,
18.2,
18.2,
18.1,
17.8,
18.5,
18.7,
19.0,
19.0,
18.7,
18.3
],
"lo": [
11.6,
11.8,
11.4,
11.1,
10.0,
9.0,
9.2,
9.2,
10.3,
11.1,
11.6,
11.7
],
"rain": [
316,
246,
268,
166,
73,
52,
51,
68,
160,
200,
239,
270
],
"rain_days": [
30,
28,
30,
25,
14,
12,
12,
15,
23,
26,
27,
30
]
},
"Madeira": {
"city": "Madeira",
"lat": 32.67,
"lon": -16.92,
"hi": [
15.9,
16.5,
17.0,
17.7,
19.9,
20.8,
23.2,
24.9,
23.1,
22.3,
19.3,
17.5
],
"lo": [
11.2,
11.1,
11.6,
12.0,
14.0,
15.4,
17.0,
18.2,
17.2,
16.5,
13.9,
12.8
],
"rain": [
68,
52,
71,
78,
38,
120,
16,
17,
58,
83,
85,
117
],
"rain_days": [
9,
10,
12,
11,
7,
12,
4,
4,
14,
11,
11,
13
]
},
"Madrid": {
"city": "Madrid",
"lat": 40.42,
"lon": -3.7,
"hi": [
10.2,
14.9,
16.9,
19.0,
25.1,
29.5,
34.9,
33.5,
26.2,
21.8,
14.3,
11.5
],
"lo": [
0.6,
2.9,
5.3,
7.7,
12.0,
16.4,
20.5,
19.6,
14.8,
10.7,
6.2,
3.8
],
"rain": [
29,
17,
50,
75,
26,
18,
3,
10,
93,
63,
50,
64
],
"rain_days": [
5,
3,
7,
11,
5,
4,
1,
2,
8,
8,
8,
10
]
},
"Malaga": {
"city": "Malaga",
"lat": 36.7213,
"lon": -4.4214,
"hi": [
16.6,
18.0,
19.7,
20.7,
24.7,
28.5,
31.4,
31.7,
28.0,
24.8,
20.7,
18.2
],
"lo": [
9.2,
10.5,
11.8,
13.3,
16.7,
20.1,
23.1,
23.6,
20.5,
17.0,
13.3,
10.9
],
"rain": [
53,
20,
74,
50,
26,
9,
1,
3,
31,
17,
36,
51
],
"rain_days": [
5,
4,
9,
9,
4,
3,
0,
1,
4,
3,
4,
6
]
},
"Maldives": {
"city": "Maldives",
"lat": 3.2,
"lon": 73.22,
"hi": [
28.1,
28.3,
28.6,
29.3,
29.2,
29.0,
28.8,
28.7,
28.5,
28.4,
28.1,
28.2
],
"lo": [
26.5,
26.9,
26.9,
27.5,
27.2,
27.4,
27.0,
27.1,
26.7,
26.5,
26.3,
26.2
],
"rain": [
73,
50,
104,
96,
227,
85,
165,
129,
174,
187,
303,
283
],
"rain_days": [
12,
9,
13,
13,
23,
14,
16,
14,
18,
21,
21,
22
]
},
"Malibu": {
"city": "Malibu",
"lat": 34.0259,
"lon": -118.7798,
"hi": [
18.3,
18.4,
18.1,
21.3,
21.7,
24.7,
27.9,
29.1,
28.1,
25.9,
22.5,
18.3
],
"lo": [
10.6,
9.9,
10.2,
12.4,
13.5,
16.0,
18.1,
19.2,
18.8,
16.4,
13.3,
10.7
],
"rain": [
103,
49,
91,
21,
10,
3,
2,
17,
14,
6,
24,
141
],
"rain_days": [
6,
5,
8,
2,
2,
1,
0,
1,
2,
1,
3,
8
]
},
"Manuel Antonio": {
"city": "Manuel Antonio",
"lat": 9.39,
"lon": -84.16,
"hi": [
29.0,
30.3,
31.0,
29.8,
29.0,
28.2,
27.9,
28.0,
28.2,
27.8,
27.3,
27.9
],
"lo": [
23.9,
24.6,
25.0,
24.7,
24.4,
23.9,
23.8,
23.7,
23.7,
23.4,
23.4,
23.6
],
"rain": [
45,
15,
37,
207,
538,
505,
597,
712,
629,
888,
580,
122
],
"rain_days": [
7,
6,
6,
20,
26,
27,
26,
27,
28,
30,
25,
13
]
},
"Marco Island": {
"city": "Marco Island",
"lat": 25.9289,
"lon": -81.7281,
"hi": [
23.3,
23.9,
26.1,
28.3,
30.6,
31.7,
32.2,
32.2,
31.1,
28.9,
26.1,
23.9
],
"lo": [
13.9,
13.9,
16.7,
18.3,
22.2,
24.4,
25.0,
25.0,
23.9,
20.6,
16.7,
13.9
],
"rain": [
45,
42,
31,
73,
87,
219,
157,
180,
195,
92,
90,
72
],
"rain_days": [
7,
6,
6,
12,
14,
23,
23,
25,
20,
15,
10,
7
]
},
"Marktoberdorf": {
"city": "Marktoberdorf",
"lat": 47.78,
"lon": 10.62,
"hi": [
3.0,
7.3,
8.9,
11.7,
15.0,
21.7,
22.2,
21.6,
18.3,
14.7,
7.6,
4.8
],
"lo": [
-4.1,
-2.3,
-0.9,
1.7,
6.0,
11.5,
12.8,
12.5,
9.1,
5.5,
0.3,
-2.3
],
"rain": [
89,
82,
75,
85,
160,
137,
133,
177,
89,
89,
92,
105
],
"rain_days": [
13,
14,
14,
13,
19,
16,
16,
16,
13,
13,
14,
15
]
},
"Marrakech": {
"city": "Marrakech",
"lat": 31.63,
"lon": -7.99,
"hi": [
19.7,
22.8,
23.7,
25.9,
31.8,
33.2,
39.2,
38.4,
33.4,
30.5,
24.5,
21.3
],
"lo": [
5.4,
7.8,
9.5,
11.8,
15.7,
17.8,
21.6,
21.6,
18.6,
15.3,
10.4,
7.4
],
"rain": [
24,
38,
55,
37,
14,
1,
1,
0,
5,
16,
17,
33
],
"rain_days": [
3,
5,
7,
6,
3,
0,
0,
0,
1,
2,
3,
4
]
},
"Marseille": {
"city": "Marseille",
"lat": 43.3,
"lon": 5.37,
"hi": [
11.0,
13.2,
14.6,
16.6,
20.3,
25.3,
28.4,
27.9,
24.7,
20.6,
15.3,
12.7
],
"lo": [
5.0,
6.4,
7.5,
9.4,
13.4,
18.3,
20.7,
20.1,
17.7,
14.2,
9.7,
7.1
],
"rain": [
25,
27,
13,
51,
53,
23,
4,
23,
72,
81,
87,
70
],
"rain_days": [
6,
5,
2,
7,
7,
4,
1,
2,
6,
8,
11,
10
]
},
"Maui": {
"city": "Maui",
"lat": 20.8,
"lon": -156.33,
"hi": [
22.1,
21.3,
22.2,
22.8,
23.9,
25.4,
26.7,
26.6,
26.6,
25.7,
24.6,
23.1
],
"lo": [
15.6,
15.2,
15.7,
16.3,
17.2,
18.2,
19.3,
19.3,
19.2,
18.7,
18.0,
16.8
],
"rain": [
118,
201,
123,
131,
78,
50,
42,
63,
51,
83,
70,
137
],
"rain_days": [
16,
20,
17,
13,
13,
10,
8,
8,
9,
11,
12,
14
]
},
"Melbourne": {
"city": "Melbourne",
"lat": -37.81,
"lon": 144.96,
"hi": [
27.0,
25.0,
23.4,
20.2,
16.0,
13.9,
13.4,
14.3,
17.1,
18.8,
21.0,
23.5
],
"lo": [
15.2,
14.2,
13.5,
10.5,
8.3,
6.9,
6.4,
6.9,
7.9,
9.0,
10.9,
12.3
],
"rain": [
69,
42,
47,
73,
72,
80,
50,
66,
72,
112,
93,
67
],
"rain_days": [
8,
6,
8,
9,
13,
12,
12,
14,
13,
15,
12,
8
]
},
"Miami": {
"city": "Miami",
"lat": 25.77,
"lon": -80.19,
"hi": [
24.2,
25.5,
26.7,
28.0,
28.9,
29.7,
30.9,
31.1,
30.2,
28.9,
26.8,
24.9
],
"lo": [
17.1,
19.8,
20.4,
21.8,
23.0,
24.5,
25.6,
25.8,
24.8,
23.8,
21.2,
18.8
],
"rain": [
66,
86,
67,
103,
142,
222,
140,
152,
210,
142,
156,
121
],
"rain_days": [
11,
14,
11,
15,
17,
22,
23,
26,
23,
20,
13,
12
]
},
"Milan": {
"city": "Milan",
"lat": 45.46,
"lon": 9.19,
"hi": [
7.8,
12.0,
15.0,
18.2,
22.2,
28.5,
30.4,
29.7,
24.9,
19.5,
12.5,
7.7
],
"lo": [
-0.5,
2.0,
4.3,
7.8,
12.8,
18.2,
20.3,
19.9,
16.0,
11.5,
5.5,
1.7
],
"rain": [
49,
34,
36,
91,
130,
80,
108,
124,
131,
139,
133,
99
],
"rain_days": [
7,
5,
6,
9,
15,
9,
11,
11,
10,
10,
11,
10
]
},
"Monaco": {
"city": "Monaco",
"lat": 43.74,
"lon": 7.42,
"hi": [
11.4,
12.9,
14.6,
16.3,
20.1,
25.3,
27.7,
27.9,
24.7,
20.3,
15.7,
12.6
],
"lo": [
3.8,
5.4,
6.6,
8.9,
13.0,
18.1,
20.8,
20.6,
17.4,
13.3,
8.6,
5.7
],
"rain": [
40,
32,
22,
60,
66,
40,
17,
26,
47,
106,
116,
102
],
"rain_days": [
5,
4,
3,
8,
9,
6,
3,
5,
7,
8,
10,
9
]
},
"Montevideo": {
"city": "Montevideo",
"lat": -34.9011,
"lon": -56.1645,
"hi": [
27.0,
26.1,
25.0,
21.5,
17.8,
15.0,
14.2,
15.4,
16.3,
18.7,
22.7,
25.2
],
"lo": [
19.8,
19.2,
18.5,
15.2,
12.1,
9.7,
8.7,
9.0,
10.3,
12.6,
15.8,
18.0
],
"rain": [
82,
95,
93,
101,
75,
85,
74,
67,
60,
84,
66,
61
],
"rain_days": [
10,
11,
12,
8,
7,
9,
9,
6,
6,
10,
6,
8
]
},
"Montreal": {
"city": "Montreal",
"lat": 45.5,
"lon": -73.57,
"hi": [
-4.9,
-3.3,
3.5,
11.2,
18.9,
24.2,
26.9,
25.3,
20.9,
14.7,
6.0,
0.8
],
"lo": [
-13.3,
-12.7,
-5.7,
1.0,
7.9,
14.5,
18.3,
17.0,
12.7,
7.3,
-0.9,
-5.9
],
"rain": [
86,
82,
85,
118,
70,
108,
102,
125,
85,
135,
79,
91
],
"rain_days": [
12,
12,
11,
11,
9,
12,
12,
13,
9,
12,
10,
12
]
},
"Munich": {
"city": "Munich",
"lat": 48.14,
"lon": 11.58,
"hi": [
4.1,
8.1,
10.3,
13.5,
16.8,
23.5,
24.4,
23.6,
19.8,
15.9,
8.5,
5.5
],
"lo": [
-2.3,
-0.9,
0.4,
3.1,
7.5,
13.0,
14.3,
14.2,
10.4,
7.0,
1.6,
-1.0
],
"rain": [
70,
73,
56,
67,
126,
121,
113,
158,
81,
77,
79,
83
],
"rain_days": [
14,
13,
12,
13,
17,
13,
15,
16,
11,
12,
13,
14
]
},
"Muscat": {
"city": "Muscat",
"lat": 23.6136,
"lon": 58.5922,
"hi": [
24.4,
25.8,
29.2,
33.8,
37.8,
38.1,
36.3,
36.0,
35.5,
33.1,
29.3,
26.2
],
"lo": [
17.5,
18.9,
22.2,
26.4,
30.1,
31.6,
31.0,
29.8,
28.7,
25.6,
22.2,
19.4
],
"rain": [
16,
1,
3,
2,
0,
0,
21,
0,
0,
20,
12,
13
],
"rain_days": [
3,
1,
1,
0,
0,
0,
2,
0,
0,
1,
2,
3
]
},
"Mykonos": {
"city": "Mykonos",
"lat": 37.44,
"lon": 25.33,
"hi": [
14.1,
14.4,
15.3,
18.3,
22.3,
26.2,
28.4,
28.6,
26.0,
22.7,
19.6,
16.5
],
"lo": [
10.5,
10.5,
11.2,
13.7,
17.0,
21.4,
23.9,
24.2,
22.0,
19.0,
16.0,
13.2
],
"rain": [
75,
39,
36,
35,
12,
7,
1,
4,
8,
19,
56,
59
],
"rain_days": [
12,
7,
8,
5,
3,
2,
0,
1,
1,
3,
7,
10
]
},
"Napa": {
"city": "Napa",
"lat": 38.2975,
"lon": -122.2869,
"hi": [
14.8,
15.9,
16.7,
21.0,
23.9,
27.9,
29.7,
30.8,
29.3,
25.6,
18.7,
14.1
],
"lo": [
5.2,
4.4,
5.6,
7.9,
10.3,
12.8,
13.2,
14.5,
14.0,
10.9,
6.3,
5.2
],
"rain": [
146,
106,
120,
25,
30,
5,
0,
1,
12,
44,
46,
164
],
"rain_days": [
9,
6,
10,
4,
4,
1,
0,
0,
1,
3,
5,
12
]
},
"Naples": {
"city": "Naples",
"lat": 40.8518,
"lon": 14.2681,
"hi": [
12.4,
14.0,
15.2,
17.4,
21.5,
27.2,
30.5,
30.5,
27.4,
22.6,
18.0,
14.8
],
"lo": [
4.6,
5.5,
6.7,
9.1,
13.4,
17.9,
21.2,
21.3,
18.6,
14.0,
11.5,
8.0
],
"rain": [
95,
53,
65,
77,
93,
51,
14,
30,
109,
81,
258,
140
],
"rain_days": [
13,
8,
10,
10,
13,
5,
2,
7,
9,
9,
19,
12
]
},
"Naples (FL)": {
"city": "Naples (FL)",
"lat": 26.14,
"lon": -81.75,
"hi": [
23.7,
26.1,
27.8,
29.3,
30.9,
30.7,
31.6,
31.7,
31.2,
30.0,
27.1,
24.7
],
"lo": [
14.2,
16.9,
17.7,
19.8,
21.5,
23.6,
24.3,
24.6,
23.7,
22.1,
18.7,
15.9
],
"rain": [
45,
42,
31,
73,
87,
219,
157,
180,
195,
92,
90,
72
],
"rain_days": [
7,
6,
6,
12,
14,
23,
23,
25,
20,
15,
10,
7
]
},
"Nashville": {
"city": "Nashville",
"lat": 36.16,
"lon": -86.78,
"hi": [
9.5,
11.7,
16.4,
20.2,
25.7,
30.1,
31.6,
30.3,
28.2,
22.3,
15.2,
12.2
],
"lo": [
0.3,
1.7,
5.2,
8.6,
14.8,
19.2,
22.0,
21.1,
17.8,
11.9,
4.3,
2.7
],
"rain": [
151,
180,
157,
119,
125,
182,
231,
251,
164,
141,
94,
125
],
"rain_days": [
12,
14,
13,
12,
12,
14,
18,
18,
9,
10,
8,
11
]
},
"Natal": {
"city": "Natal",
"lat": -5.7945,
"lon": -35.2094,
"hi": [
29.9,
30.1,
29.5,
29.2,
28.7,
28.0,
27.5,
27.8,
28.5,
29.6,
30.0,
30.1
],
"lo": [
24.5,
24.8,
24.1,
24.0,
23.7,
22.8,
22.3,
22.1,
22.9,
23.8,
24.6,
24.8
],
"rain": [
94,
98,
220,
160,
160,
151,
131,
51,
48,
29,
35,
45
],
"rain_days": [
19,
18,
24,
23,
22,
19,
19,
13,
14,
11,
11,
14
]
},
"New Orleans": {
"city": "New Orleans",
"lat": 29.95,
"lon": -90.07,
"hi": [
16.9,
19.0,
22.3,
24.6,
28.5,
30.8,
30.9,
31.4,
29.7,
25.9,
20.4,
18.4
],
"lo": [
9.2,
11.2,
14.5,
16.9,
21.2,
24.3,
25.2,
25.6,
23.8,
19.0,
13.4,
11.5
],
"rain": [
82,
127,
120,
132,
134,
191,
239,
226,
136,
117,
85,
131
],
"rain_days": [
12,
13,
13,
13,
15,
18,
23,
20,
14,
10,
9,
11
]
},
"New York": {
"city": "New York",
"lat": 40.71,
"lon": -74.0,
"hi": [
5.2,
6.2,
10.6,
15.6,
20.6,
26.1,
29.9,
28.5,
24.6,
18.8,
12.1,
7.4
],
"lo": [
-2.6,
-2.4,
0.9,
6.1,
11.0,
16.8,
21.1,
20.2,
16.2,
10.9,
3.5,
-0.0
],
"rain": [
92,
92,
106,
129,
97,
89,
147,
115,
137,
174,
71,
132
],
"rain_days": [
10,
10,
11,
12,
12,
10,
13,
13,
10,
11,
9,
10
]
},
"Nice": {
"city": "Nice",
"lat": 43.7,
"lon": 7.27,
"hi": [
12.6,
14.0,
15.7,
17.4,
21.1,
25.8,
28.5,
28.8,
25.7,
21.3,
16.9,
13.8
],
"lo": [
4.9,
6.1,
7.9,
10.1,
14.2,
18.8,
21.5,
21.4,
18.5,
14.2,
9.7,
6.6
],
"rain": [
39,
34,
26,
66,
71,
43,
18,
25,
40,
114,
135,
110
],
"rain_days": [
4,
4,
5,
8,
10,
5,
3,
4,
5,
7,
10,
8
]
},
"Oahu": {
"city": "Oahu",
"lat": 21.3,
"lon": -157.85,
"hi": [
26.0,
25.3,
25.6,
26.6,
27.6,
29.0,
29.4,
30.1,
30.0,
29.2,
28.0,
26.4
],
"lo": [
20.9,
20.4,
20.9,
21.6,
22.5,
23.6,
24.0,
24.3,
24.3,
23.6,
22.9,
21.6
],
"rain": [
34,
48,
64,
40,
35,
35,
19,
20,
20,
31,
32,
75
],
"rain_days": [
8,
9,
14,
11,
10,
7,
6,
7,
7,
10,
7,
8
]
},
"Oaxaca": {
"city": "Oaxaca",
"lat": 17.0732,
"lon": -96.7203,
"hi": [
25.9,
27.9,
29.8,
31.3,
30.0,
26.6,
26.1,
25.8,
25.0,
25.5,
26.4,
26.0
],
"lo": [
10.5,
11.2,
12.8,
15.2,
15.7,
15.3,
14.2,
14.4,
14.7,
13.8,
12.5,
10.7
],
"rain": [
5,
1,
2,
10,
62,
158,
134,
149,
169,
87,
6,
1
],
"rain_days": [
1,
0,
1,
3,
9,
19,
20,
20,
19,
12,
2,
0
]
},
"Olinda": {
"city": "Olinda",
"lat": -7.95,
"lon": -34.855,
"hi": [
28.8,
29.0,
28.8,
28.6,
28.0,
27.1,
26.6,
26.5,
27.0,
28.0,
28.7,
28.8
],
"lo": [
24.8,
25.1,
24.7,
24.7,
24.2,
23.2,
22.9,
22.8,
23.3,
24.0,
24.7,
24.8
],
"rain": [
105,
88,
143,
131,
226,
247,
166,
121,
86,
62,
57,
83
],
"rain_days": [
23,
21,
25,
25,
26,
27,
27,
25,
21,
21,
19,
22
]
},
"Orcas Island": {
"city": "Orcas Island",
"lat": 48.65,
"lon": -122.95,
"hi": [
7.0,
5.8,
9.1,
11.9,
16.6,
19.6,
22.3,
22.7,
19.1,
13.3,
8.6,
6.3
],
"lo": [
3.1,
1.5,
3.3,
5.4,
8.7,
11.3,
13.2,
14.1,
12.1,
8.1,
4.7,
2.7
],
"rain": [
147,
84,
59,
68,
48,
43,
22,
22,
71,
109,
160,
152
],
"rain_days": [
19,
16,
12,
13,
10,
8,
4,
5,
10,
13,
17,
19
]
},
"Orlando": {
"city": "Orlando",
"lat": 28.54,
"lon": -81.38,
"hi": [
21.1,
24.7,
27.2,
28.2,
30.7,
31.3,
31.4,
31.6,
30.0,
28.1,
24.3,
22.1
],
"lo": [
11.1,
14.1,
15.6,
17.6,
20.1,
22.9,
23.9,
24.2,
22.8,
20.1,
16.2,
13.0
],
"rain": [
50,
61,
68,
117,
115,
231,
242,
285,
314,
110,
111,
92
],
"rain_days": [
7,
9,
9,
13,
14,
22,
27,
26,
21,
14,
11,
8
]
},
"Osaka": {
"city": "Osaka",
"lat": 34.6937,
"lon": 135.5023,
"hi": [
9.2,
10.2,
14.7,
18.3,
23.0,
26.6,
30.1,
32.3,
29.6,
22.8,
17.6,
11.7
],
"lo": [
1.2,
1.7,
5.1,
9.0,
14.3,
19.3,
23.8,
25.6,
22.2,
14.2,
8.5,
3.1
],
"rain": [
51,
59,
113,
157,
191,
203,
281,
188,
183,
191,
78,
58
],
"rain_days": [
7,
6,
11,
9,
12,
13,
18,
15,
13,
9,
7,
7
]
},
"Oslo": {
"city": "Oslo",
"lat": 59.91,
"lon": 10.75,
"hi": [
1.1,
2.9,
5.8,
11.4,
15.4,
22.1,
21.3,
20.9,
16.7,
10.1,
4.7,
0.1
],
"lo": [
-3.7,
-3.0,
-2.2,
1.8,
6.2,
12.8,
13.5,
13.3,
10.0,
5.3,
1.1,
-3.9
],
"rain": [
62,
60,
57,
46,
79,
86,
118,
86,
92,
106,
92,
82
],
"rain_days": [
10,
10,
8,
6,
13,
11,
14,
12,
10,
15,
14,
15
]
},
"Oxford": {
"city": "Oxford",
"lat": 51.75,
"lon": -1.26,
"hi": [
7.3,
9.6,
10.8,
13.5,
16.5,
20.3,
21.9,
21.9,
19.8,
15.0,
10.6,
8.3
],
"lo": [
1.7,
3.0,
3.7,
4.0,
7.7,
11.4,
13.4,
13.5,
11.5,
8.7,
5.1,
3.4
],
"rain": [
54,
53,
59,
40,
63,
77,
72,
59,
60,
118,
75,
80
],
"rain_days": [
11,
11,
13,
8,
12,
13,
12,
10,
10,
15,
14,
15
]
},
"Palawan": {
"city": "Palawan",
"lat": 9.7392,
"lon": 118.7358,
"hi": [
28.0,
28.0,
28.7,
29.7,
29.9,
29.5,
29.3,
29.6,
29.5,
29.0,
28.9,
28.6
],
"lo": [
24.6,
24.1,
24.2,
24.8,
25.5,
25.3,
25.0,
25.0,
24.8,
24.8,
24.9,
24.8
],
"rain": [
161,
85,
107,
115,
194,
226,
238,
199,
277,
266,
249,
228
],
"rain_days": [
21,
19,
18,
21,
25,
26,
27,
26,
27,
29,
28,
25
]
},
"Palm Desert": {
"city": "Palm Desert",
"lat": 33.72,
"lon": -116.37,
"hi": [
19.1,
20.5,
23.1,
30.3,
33.5,
38.8,
42.2,
41.3,
37.6,
31.4,
24.6,
18.9
],
"lo": [
10.6,
10.4,
12.3,
17.2,
20.1,
24.9,
29.2,
28.9,
25.1,
19.3,
14.3,
10.8
],
"rain": [
31,
29,
34,
12,
1,
0,
2,
15,
13,
2,
17,
31
],
"rain_days": [
4,
3,
4,
1,
0,
0,
0,
1,
1,
0,
2,
4
]
},
"Palo Alto": {
"city": "Palo Alto",
"lat": 37.44,
"lon": -122.14,
"hi": [
14.6,
15.3,
16.4,
19.9,
22.7,
26.5,
27.4,
28.6,
27.0,
24.0,
17.8,
14.2
],
"lo": [
6.8,
6.4,
7.4,
9.1,
11.1,
13.7,
14.2,
15.5,
14.7,
12.5,
8.7,
7.2
],
"rain": [
94,
62,
87,
19,
21,
1,
1,
1,
6,
24,
37,
142
],
"rain_days": [
9,
7,
10,
4,
4,
0,
0,
0,
1,
2,
5,
12
]
},
"Paris": {
"city": "Paris",
"lat": 48.85,
"lon": 2.35,
"hi": [
7.3,
10.5,
12.6,
15.6,
18.8,
24.0,
25.5,
25.2,
22.6,
17.2,
11.3,
8.6
],
"lo": [
2.2,
3.2,
4.2,
5.6,
9.3,
14.0,
15.1,
15.4,
13.1,
10.0,
5.7,
3.9
],
"rain": [
59,
43,
59,
44,
64,
72,
52,
65,
53,
90,
69,
95
],
"rain_days": [
11,
10,
12,
9,
10,
12,
7,
11,
9,
16,
14,
16
]
},
"Pasadena": {
"city": "Pasadena",
"lat": 34.15,
"lon": -118.14,
"hi": [
17.7,
18.7,
18.8,
23.1,
24.2,
27.9,
31.5,
32.4,
31.1,
27.5,
22.8,
17.8
],
"lo": [
7.5,
6.8,
7.8,
10.6,
11.9,
14.5,
17.1,
18.2,
17.7,
14.6,
10.7,
8.2
],
"rain": [
116,
80,
134,
34,
17,
7,
2,
19,
24,
10,
38,
142
],
"rain_days": [
7,
5,
10,
4,
3,
1,
0,
1,
3,
2,
4,
7
]
},
"Pensacola": {
"city": "Pensacola",
"lat": 30.45,
"lon": -87.22,
"hi": [
16.3,
18.6,
21.1,
23.2,
27.1,
29.9,
30.5,
30.9,
29.5,
25.6,
20.8,
17.9
],
"lo": [
8.2,
10.9,
13.6,
15.5,
19.9,
23.5,
24.6,
24.9,
22.6,
17.7,
12.1,
10.3
],
"rain": [
104,
95,
103,
134,
110,
145,
161,
195,
158,
100,
86,
121
],
"rain_days": [
10,
12,
12,
11,
10,
18,
21,
22,
13,
9,
6,
11
]
},
"Petra": {
"city": "Petra",
"lat": 30.3286,
"lon": 35.4444,
"hi": [
12.7,
13.7,
16.8,
23.1,
28.2,
30.1,
32.0,
32.3,
30.4,
26.2,
20.5,
15.8
],
"lo": [
6.2,
6.4,
8.4,
13.0,
17.7,
20.2,
22.2,
22.9,
20.9,
17.8,
13.2,
9.0
],
"rain": [
43,
49,
43,
11,
9,
1,
0,
0,
0,
5,
21,
26
],
"rain_days": [
8,
8,
8,
3,
1,
0,
0,
0,
0,
2,
4,
5
]
},
"Philadelphia": {
"city": "Philadelphia",
"lat": 39.95,
"lon": -75.16,
"hi": [
6.2,
7.7,
12.4,
17.7,
22.6,
28.0,
31.2,
29.8,
26.2,
20.1,
12.9,
8.2
],
"lo": [
-2.2,
-1.7,
1.7,
7.0,
11.8,
17.3,
21.4,
20.5,
16.5,
10.9,
3.4,
0.1
],
"rain": [
83,
91,
103,
125,
104,
100,
139,
106,
110,
112,
74,
117
],
"rain_days": [
10,
11,
10,
12,
12,
12,
14,
13,
10,
11,
8,
10
]
},
"Phoenix": {
"city": "Phoenix",
"lat": 33.45,
"lon": -112.07,
"hi": [
18.3,
19.7,
23.5,
30.8,
34.5,
40.0,
41.4,
40.3,
37.5,
31.6,
25.1,
18.5
],
"lo": [
5.5,
6.3,
9.8,
15.4,
20.0,
25.4,
29.3,
28.3,
24.7,
17.0,
11.1,
6.6
],
"rain": [
27,
32,
40,
2,
1,
2,
73,
44,
32,
8,
20,
51
],
"rain_days": [
4,
3,
4,
1,
0,
1,
4,
4,
3,
1,
2,
6
]
},
"Phuket": {
"city": "Phuket",
"lat": 7.8804,
"lon": 98.3923,
"hi": [
30.1,
31.5,
32.4,
31.7,
30.3,
29.7,
29.7,
29.5,
29.1,
28.9,
28.8,
29.0
],
"lo": [
24.4,
24.7,
25.2,
25.6,
25.6,
25.3,
25.2,
25.1,
24.6,
24.2,
24.2,
24.2
],
"rain": [
38,
42,
61,
105,
196,
180,
185,
181,
230,
301,
275,
133
],
"rain_days": [
9,
8,
11,
19,
26,
24,
21,
22,
24,
29,
27,
16
]
},
"Pisa": {
"city": "Pisa",
"lat": 43.72,
"lon": 10.4,
"hi": [
11.0,
13.8,
15.8,
18.4,
22.2,
28.1,
30.9,
31.3,
27.2,
22.0,
16.1,
12.5
],
"lo": [
2.1,
3.6,
4.8,
7.2,
12.3,
16.9,
19.7,
19.7,
16.2,
12.7,
8.4,
4.8
],
"rain": [
91,
46,
42,
93,
101,
72,
32,
75,
130,
136,
195,
176
],
"rain_days": [
12,
7,
5,
10,
12,
8,
5,
7,
10,
11,
16,
17
]
},
"Pokhara": {
"city": "Pokhara",
"lat": 28.2096,
"lon": 83.9856,
"hi": [
16.3,
18.1,
23.1,
26.4,
26.5,
27.4,
26.8,
27.1,
26.2,
24.6,
21.5,
17.6
],
"lo": [
5.8,
7.7,
11.4,
14.7,
17.7,
20.6,
21.6,
21.8,
20.6,
16.3,
11.2,
7.0
],
"rain": [
42,
53,
26,
31,
149,
399,
682,
633,
429,
103,
1,
28
],
"rain_days": [
5,
6,
5,
7,
14,
23,
30,
28,
21,
7,
0,
2
]
},
"Portland": {
"city": "Portland",
"lat": 45.51,
"lon": -122.68,
"hi": [
8.5,
7.8,
11.3,
14.8,
19.4,
23.5,
28.3,
29.2,
24.3,
17.1,
10.7,
7.7
],
"lo": [
2.7,
0.8,
2.2,
4.8,
8.8,
11.8,
14.7,
15.5,
12.9,
8.2,
4.0,
2.4
],
"rain": [
194,
130,
105,
122,
91,
75,
10,
14,
81,
96,
175,
229
],
"rain_days": [
20,
15,
15,
15,
12,
9,
3,
3,
8,
10,
15,
19
]
},
"Porto": {
"city": "Porto",
"lat": 41.15,
"lon": -8.61,
"hi": [
13.3,
15.6,
16.5,
17.4,
20.6,
21.0,
24.2,
23.7,
23.5,
20.3,
16.3,
14.4
],
"lo": [
6.9,
8.2,
9.1,
10.6,
13.2,
14.5,
16.4,
16.3,
16.1,
13.9,
10.9,
9.2
],
"rain": [
144,
81,
97,
132,
66,
56,
13,
19,
91,
220,
197,
267
],
"rain_days": [
10,
8,
12,
13,
9,
9,
3,
3,
8,
14,
16,
18
]
},
"Porto Alegre": {
"city": "Porto Alegre",
"lat": -30.0346,
"lon": -51.2177,
"hi": [
31.4,
30.0,
28.4,
25.3,
21.3,
19.9,
19.3,
20.8,
21.9,
24.0,
26.6,
29.4
],
"lo": [
21.6,
20.1,
19.8,
16.5,
13.1,
11.7,
10.2,
11.0,
13.2,
15.2,
16.8,
19.3
],
"rain": [
98,
75,
104,
66,
158,
147,
150,
92,
193,
142,
132,
80
],
"rain_days": [
12,
10,
12,
8,
12,
10,
9,
9,
13,
13,
12,
9
]
},
"Prague": {
"city": "Prague",
"lat": 50.09,
"lon": 14.42,
"hi": [
4.2,
6.9,
10.3,
14.2,
18.5,
25.4,
25.9,
24.9,
21.1,
16.0,
8.5,
5.1
],
"lo": [
-1.1,
-0.7,
1.0,
3.5,
8.3,
14.6,
15.4,
15.4,
11.3,
7.3,
2.5,
-0.2
],
"rain": [
41,
51,
39,
41,
71,
90,
67,
103,
45,
53,
48,
51
],
"rain_days": [
12,
12,
10,
9,
12,
12,
11,
13,
8,
11,
10,
12
]
},
"Puerto Rico": {
"city": "Puerto Rico",
"lat": 18.47,
"lon": -66.1,
"hi": [
28.2,
28.2,
28.9,
29.9,
31.5,
31.9,
31.1,
31.3,
31.0,
30.6,
29.6,
28.5
],
"lo": [
21.6,
21.9,
21.8,
22.4,
23.7,
24.6,
25.2,
25.2,
24.9,
24.3,
23.7,
22.8
],
"rain": [
68,
57,
61,
66,
63,
60,
99,
93,
172,
111,
82,
57
],
"rain_days": [
16,
16,
17,
17,
18,
19,
21,
20,
23,
21,
19,
17
]
},
"Puerto Vallarta": {
"city": "Puerto Vallarta",
"lat": 20.6534,
"lon": -105.2253,
"hi": [
25.9,
25.6,
26.1,
26.9,
28.6,
29.6,
30.7,
30.4,
29.9,
29.8,
29.0,
27.0
],
"lo": [
17.9,
17.4,
16.9,
18.2,
20.3,
23.5,
24.8,
24.9,
24.8,
24.1,
21.5,
19.1
],
"rain": [
20,
19,
0,
0,
3,
76,
219,
248,
286,
155,
9,
11
],
"rain_days": [
1,
2,
0,
0,
1,
11,
23,
27,
24,
16,
3,
2
]
},
"Quebec City": {
"city": "Quebec City",
"lat": 46.81,
"lon": -71.21,
"hi": [
-6.2,
-5.0,
1.5,
8.5,
17.5,
22.4,
25.4,
23.9,
19.6,
13.4,
4.0,
-0.9
],
"lo": [
-14.3,
-14.0,
-7.5,
-0.9,
6.1,
12.5,
16.2,
15.2,
10.7,
5.3,
-3.5,
-8.9
],
"rain": [
84,
89,
86,
97,
91,
142,
166,
152,
119,
118,
85,
101
],
"rain_days": [
13,
13,
12,
12,
11,
13,
16,
15,
10,
12,
11,
13
]
},
"Queenstown": {
"city": "Queenstown",
"lat": -45.03,
"lon": 168.66,
"hi": [
21.5,
20.9,
19.1,
15.2,
12.4,
7.7,
7.1,
8.3,
11.3,
14.0,
17.5,
19.0
],
"lo": [
12.5,
12.3,
11.0,
7.8,
6.2,
2.9,
1.9,
2.4,
3.8,
5.5,
8.6,
10.5
],
"rain": [
95,
120,
97,
108,
125,
101,
124,
115,
178,
132,
115,
154
],
"rain_days": [
10,
10,
9,
13,
13,
12,
15,
14,
13,
15,
14,
17
]
},
"Recife": {
"city": "Recife",
"lat": -8.0576,
"lon": -34.8826,
"hi": [
29.1,
29.4,
29.2,
28.8,
28.1,
27.2,
26.6,
26.6,
27.2,
28.2,
29.2,
29.2
],
"lo": [
24.6,
24.9,
24.6,
24.4,
24.0,
23.0,
22.6,
22.5,
23.0,
23.7,
24.5,
24.6
],
"rain": [
92,
86,
128,
118,
216,
226,
163,
130,
83,
66,
56,
82
],
"rain_days": [
23,
21,
25,
24,
26,
26,
27,
26,
21,
23,
19,
22
]
},
"Reykjavik": {
"city": "Reykjavik",
"lat": 64.1,
"lon": -22.0,
"hi": [
1.7,
2.3,
2.8,
6.6,
8.7,
11.4,
13.3,
13.2,
10.4,
6.7,
4.3,
1.0
],
"lo": [
-2.9,
-1.8,
-1.6,
1.7,
3.7,
6.7,
8.7,
8.6,
6.1,
2.7,
0.5,
-3.0
],
"rain": [
161,
154,
140,
149,
119,
97,
71,
110,
167,
143,
120,
122
],
"rain_days": [
18,
17,
17,
18,
18,
16,
14,
14,
19,
15,
16,
15
]
},
"Rio de Janeiro": {
"city": "Rio de Janeiro",
"lat": -22.9068,
"lon": -43.1729,
"hi": [
29.8,
29.0,
29.0,
26.7,
25.4,
25.0,
24.8,
24.8,
26.0,
26.4,
26.4,
27.9
],
"lo": [
23.7,
23.6,
23.2,
21.5,
19.7,
18.9,
18.1,
18.2,
19.6,
20.8,
20.9,
22.4
],
"rain": [
124,
155,
115,
104,
72,
38,
42,
75,
86,
92,
117,
147
],
"rain_days": [
12,
16,
11,
14,
9,
9,
7,
10,
10,
16,
16,
16
]
},
"Rome": {
"city": "Rome",
"lat": 41.9,
"lon": 12.5,
"hi": [
12.0,
14.9,
16.6,
18.9,
23.3,
29.8,
33.5,
32.6,
28.2,
23.1,
17.7,
14.2
],
"lo": [
3.4,
4.7,
6.0,
8.2,
13.1,
17.8,
21.1,
21.1,
17.5,
13.6,
10.0,
6.5
],
"rain": [
75,
46,
64,
70,
81,
44,
18,
37,
77,
76,
194,
131
],
"rain_days": [
10,
5,
8,
11,
13,
5,
4,
5,
8,
10,
16,
12
]
},
"Salvador": {
"city": "Salvador",
"lat": -12.9714,
"lon": -38.5016,
"hi": [
28.5,
29.0,
28.4,
27.9,
26.7,
25.8,
25.3,
25.1,
26.2,
27.8,
28.1,
28.5
],
"lo": [
24.4,
24.8,
24.5,
24.3,
23.7,
22.9,
22.1,
21.9,
22.4,
23.5,
23.8,
24.2
],
"rain": [
68,
53,
143,
173,
180,
131,
116,
92,
61,
53,
136,
87
],
"rain_days": [
20,
17,
22,
23,
24,
25,
24,
25,
20,
17,
19,
17
]
},
"Salzburg": {
"city": "Salzburg",
"lat": 47.8,
"lon": 13.05,
"hi": [
5.0,
9.1,
11.3,
14.2,
17.2,
24.2,
24.7,
23.9,
20.3,
17.0,
10.0,
6.5
],
"lo": [
-2.7,
-1.2,
0.4,
3.2,
7.7,
13.4,
14.7,
14.5,
10.9,
7.2,
1.7,
-1.4
],
"rain": [
121,
102,
84,
96,
182,
116,
159,
200,
119,
98,
117,
108
],
"rain_days": [
16,
13,
13,
13,
20,
14,
16,
17,
12,
12,
14,
16
]
},
"San Diego": {
"city": "San Diego",
"lat": 32.72,
"lon": -117.16,
"hi": [
17.3,
17.4,
17.2,
19.3,
19.9,
21.9,
23.9,
25.3,
25.4,
23.9,
21.0,
17.6
],
"lo": [
8.3,
7.9,
9.8,
12.4,
14.1,
16.0,
18.0,
18.9,
18.4,
15.0,
11.0,
8.9
],
"rain": [
70,
48,
73,
29,
12,
3,
5,
9,
15,
7,
42,
69
],
"rain_days": [
7,
5,
10,
4,
3,
1,
0,
1,
1,
2,
4,
6
]
},
"San Francisco": {
"city": "San Francisco",
"lat": 37.77,
"lon": -122.42,
"hi": [
13.4,
14.0,
13.8,
15.2,
16.6,
18.4,
18.1,
19.8,
20.5,
20.0,
16.3,
13.3
],
"lo": [
7.9,
7.5,
8.6,
10.0,
11.5,
13.0,
13.3,
14.6,
14.7,
12.8,
9.7,
8.2
],
"rain": [
111,
79,
92,
22,
26,
2,
0,
0,
5,
34,
42,
186
],
"rain_days": [
10,
7,
10,
4,
4,
0,
0,
0,
1,
2,
6,
13
]
},
"San Jose": {
"city": "San Jose",
"lat": 37.34,
"lon": -121.89,
"hi": [
15.1,
15.9,
17.1,
20.8,
23.8,
27.8,
28.7,
30.0,
28.4,
25.3,
18.7,
14.7
],
"lo": [
6.5,
5.7,
7.2,
9.2,
11.6,
14.2,
14.7,
15.9,
15.1,
12.7,
8.4,
7.1
],
"rain": [
98,
66,
92,
21,
22,
1,
1,
1,
9,
26,
38,
148
],
"rain_days": [
9,
7,
11,
4,
4,
0,
0,
0,
1,
2,
5,
12
]
},
"San José CR": {
"city": "San José CR",
"lat": 9.93,
"lon": -84.07,
"hi": [
24.8,
26.0,
26.5,
26.7,
25.5,
24.4,
24.7,
24.7,
24.8,
24.2,
23.8,
24.3
],
"lo": [
15.5,
15.5,
15.7,
16.5,
16.9,
16.6,
16.7,
16.5,
16.1,
15.9,
16.2,
15.9
],
"rain": [
28,
8,
43,
129,
381,
375,
302,
488,
466,
585,
315,
70
],
"rain_days": [
6,
3,
8,
17,
27,
28,
24,
28,
29,
30,
23,
11
]
},
"San Juan Island": {
"city": "San Juan Island",
"lat": 48.53,
"lon": -123.08,
"hi": [
7.3,
6.0,
8.8,
11.3,
15.3,
17.8,
19.9,
20.5,
17.6,
12.8,
8.9,
6.7
],
"lo": [
3.6,
2.1,
3.6,
5.7,
9.0,
11.3,
13.0,
13.8,
12.1,
8.3,
5.3,
3.4
],
"rain": [
136,
80,
49,
58,
42,
39,
19,
19,
61,
104,
145,
149
],
"rain_days": [
19,
15,
12,
12,
9,
8,
3,
4,
9,
13,
16,
19
]
},
"San Sebastian": {
"city": "San Sebastian",
"lat": 43.3183,
"lon": -1.9812,
"hi": [
11.3,
15.0,
15.7,
16.8,
19.3,
22.4,
23.8,
24.6,
23.8,
21.3,
15.6,
14.2
],
"lo": [
5.6,
7.4,
8.2,
9.4,
11.8,
15.3,
17.1,
17.4,
16.2,
13.9,
9.8,
8.4
],
"rain": [
201,
94,
137,
130,
140,
109,
66,
112,
121,
148,
267,
224
],
"rain_days": [
16,
12,
15,
14,
15,
15,
12,
13,
12,
14,
20,
16
]
},
"San Sebastián": {
"city": "San Sebastián",
"lat": 43.32,
"lon": -1.98,
"hi": [
11.4,
15.1,
15.7,
16.8,
19.4,
22.4,
23.9,
24.6,
23.8,
21.3,
15.6,
14.2
],
"lo": [
5.6,
7.4,
8.2,
9.5,
11.9,
15.3,
17.1,
17.5,
16.2,
14.0,
9.9,
8.4
],
"rain": [
201,
94,
137,
130,
140,
109,
66,
112,
121,
148,
267,
224
],
"rain_days": [
16,
12,
15,
14,
15,
15,
12,
13,
12,
14,
20,
16
]
},
"Santa Barbara": {
"city": "Santa Barbara",
"lat": 34.42,
"lon": -119.7,
"hi": [
18.2,
18.1,
18.4,
22.0,
22.4,
24.9,
28.0,
29.3,
28.5,
26.3,
22.2,
18.2
],
"lo": [
8.5,
7.7,
8.9,
11.9,
13.1,
15.6,
18.0,
18.9,
18.2,
14.8,
10.7,
8.8
],
"rain": [
148,
69,
124,
25,
22,
8,
1,
6,
7,
12,
29,
148
],
"rain_days": [
6,
4,
10,
3,
3,
1,
0,
1,
2,
1,
3,
9
]
},
"Santa Cruz": {
"city": "Santa Cruz",
"lat": 36.97,
"lon": -122.03,
"hi": [
15.4,
15.6,
15.7,
18.7,
20.2,
22.9,
23.9,
25.2,
25.5,
23.2,
18.9,
15.1
],
"lo": [
7.5,
6.5,
7.3,
8.8,
10.4,
12.4,
13.3,
14.6,
14.2,
12.2,
9.0,
7.8
],
"rain": [
185,
112,
161,
36,
40,
3,
0,
1,
8,
44,
58,
238
],
"rain_days": [
9,
6,
11,
3,
4,
1,
0,
0,
1,
2,
5,
13
]
},
"Santa Fe": {
"city": "Santa Fe",
"lat": 35.69,
"lon": -105.94,
"hi": [
6.1,
8.3,
12.8,
17.2,
22.2,
27.8,
29.4,
27.8,
24.4,
17.8,
11.1,
6.1
],
"lo": [
-7.8,
-5.6,
-2.2,
1.7,
6.1,
11.7,
16.7,
15.6,
11.7,
4.4,
-2.2,
-7.2
],
"rain": [
14,
11,
14,
12,
19,
22,
58,
54,
33,
22,
13,
16
],
"rain_days": [
4,
3,
4,
3,
4,
5,
12,
12,
7,
4,
3,
4
]
},
"Santa Monica": {
"city": "Santa Monica",
"lat": 34.01,
"lon": -118.49,
"hi": [
17.6,
17.9,
17.6,
19.8,
20.3,
22.4,
24.5,
25.6,
25.8,
24.4,
21.3,
17.7
],
"lo": [
8.3,
8.1,
9.6,
12.1,
13.8,
16.0,
17.6,
18.4,
18.0,
14.7,
10.8,
8.5
],
"rain": [
89,
50,
91,
22,
8,
4,
1,
14,
13,
4,
21,
127
],
"rain_days": [
6,
4,
8,
2,
1,
1,
0,
1,
2,
1,
3,
7
]
},
"Santiago": {
"city": "Santiago",
"lat": -33.4489,
"lon": -70.6693,
"hi": [
29.7,
29.6,
28.1,
23.8,
19.5,
15.4,
15.1,
16.8,
18.5,
22.6,
26.4,
29.5
],
"lo": [
15.0,
15.3,
14.1,
11.9,
9.8,
7.3,
6.6,
7.6,
8.4,
10.0,
11.9,
14.1
],
"rain": [
15,
3,
2,
18,
13,
79,
53,
60,
35,
15,
10,
2
],
"rain_days": [
1,
1,
1,
2,
3,
8,
5,
5,
7,
3,
1,
0
]
},
"Santorini": {
"city": "Santorini",
"lat": 36.4,
"lon": 25.43,
"hi": [
14.8,
15.1,
15.9,
19.0,
22.9,
27.1,
29.7,
29.7,
27.2,
23.7,
20.6,
17.2
],
"lo": [
11.2,
11.3,
12.1,
14.3,
17.5,
21.6,
24.2,
24.5,
22.7,
19.7,
16.7,
13.7
],
"rain": [
48,
57,
52,
17,
11,
6,
1,
2,
5,
10,
24,
54
],
"rain_days": [
10,
8,
7,
4,
3,
1,
0,
1,
1,
2,
4,
9
]
},
"Sarasota": {
"city": "Sarasota",
"lat": 27.34,
"lon": -82.53,
"hi": [
21.0,
23.8,
25.8,
27.3,
29.9,
30.6,
30.7,
30.9,
30.2,
28.7,
24.9,
22.5
],
"lo": [
13.0,
15.6,
17.1,
19.2,
21.4,
23.8,
25.1,
25.1,
23.9,
21.7,
17.7,
14.9
],
"rain": [
56,
45,
31,
110,
66,
159,
161,
179,
184,
65,
81,
89
],
"rain_days": [
7,
6,
6,
12,
11,
21,
24,
25,
20,
12,
8,
8
]
},
"Sardinia": {
"city": "Sardinia",
"lat": 40.12,
"lon": 9.07,
"hi": [
9.6,
12.6,
13.8,
16.4,
20.8,
28.0,
32.1,
31.1,
26.3,
21.1,
14.8,
12.1
],
"lo": [
2.7,
3.8,
4.4,
6.6,
10.6,
16.0,
19.4,
18.9,
15.7,
11.9,
7.9,
5.5
],
"rain": [
131,
52,
60,
102,
111,
42,
6,
18,
58,
75,
165,
135
],
"rain_days": [
14,
5,
11,
12,
11,
6,
2,
3,
8,
9,
15,
13
]
},
"Scottsdale": {
"city": "Scottsdale",
"lat": 33.49,
"lon": -111.93,
"hi": [
18.3,
19.6,
23.3,
30.7,
34.4,
39.8,
41.3,
40.1,
37.5,
31.5,
25.1,
18.6
],
"lo": [
6.4,
7.0,
10.3,
15.8,
20.4,
25.6,
29.5,
28.4,
25.1,
17.7,
12.1,
7.5
],
"rain": [
29,
37,
45,
2,
1,
2,
70,
47,
35,
6,
26,
49
],
"rain_days": [
4,
4,
6,
1,
1,
1,
4,
5,
3,
1,
2,
6
]
},
"Seattle": {
"city": "Seattle",
"lat": 47.61,
"lon": -122.33,
"hi": [
8.5,
7.4,
10.6,
13.4,
17.7,
21.0,
24.3,
24.8,
20.9,
15.0,
10.0,
7.7
],
"lo": [
3.3,
1.9,
3.2,
5.5,
9.4,
12.3,
14.6,
15.3,
13.2,
8.8,
4.9,
3.4
],
"rain": [
194,
107,
74,
77,
59,
53,
16,
27,
76,
107,
153,
187
],
"rain_days": [
18,
15,
13,
14,
11,
9,
4,
6,
11,
13,
16,
19
]
},
"Sedona": {
"city": "Sedona",
"lat": 34.86,
"lon": -111.76,
"hi": [
10.5,
11.4,
14.7,
22.4,
26.4,
32.4,
34.2,
32.8,
29.7,
23.3,
17.0,
11.2
],
"lo": [
-0.5,
-0.8,
2.6,
7.9,
11.9,
17.4,
21.0,
19.2,
16.2,
9.5,
4.5,
0.8
],
"rain": [
63,
59,
73,
8,
9,
2,
30,
31,
22,
18,
38,
54
],
"rain_days": [
6,
6,
9,
2,
2,
1,
5,
6,
4,
3,
3,
8
]
},
"Seoul": {
"city": "Seoul",
"lat": 37.57,
"lon": 126.98,
"hi": [
2.4,
5.3,
12.1,
17.0,
22.5,
26.2,
28.8,
28.6,
25.0,
18.4,
11.4,
3.0
],
"lo": [
-6.6,
-4.8,
0.4,
5.9,
11.7,
17.6,
21.8,
22.1,
17.2,
9.1,
1.7,
-5.7
],
"rain": [
25,
20,
48,
58,
111,
167,
256,
352,
186,
77,
73,
26
],
"rain_days": [
3,
3,
6,
7,
9,
12,
18,
19,
10,
7,
7,
5
]
},
"Seville": {
"city": "Seville",
"lat": 37.3891,
"lon": -5.9845,
"hi": [
15.6,
19.6,
21.3,
23.3,
29.5,
32.4,
37.7,
37.0,
31.1,
27.4,
20.1,
17.0
],
"lo": [
6.4,
8.6,
10.1,
12.3,
16.1,
18.7,
22.1,
22.1,
19.1,
15.8,
11.1,
8.8
],
"rain": [
38,
20,
59,
56,
18,
13,
0,
4,
42,
49,
46,
92
],
"rain_days": [
4,
4,
8,
8,
4,
2,
0,
1,
5,
5,
7,
8
]
},
"Seychelles": {
"city": "Seychelles",
"lat": -4.6796,
"lon": 55.4917,
"hi": [
24.9,
25.5,
26.1,
26.2,
25.9,
24.7,
23.6,
23.5,
24.0,
24.8,
25.2,
25.2
],
"lo": [
23.1,
23.9,
24.3,
24.2,
24.1,
23.3,
22.2,
22.2,
22.6,
23.1,
23.2,
23.1
],
"rain": [
345,
129,
92,
172,
195,
114,
126,
100,
180,
160,
274,
352
],
"rain_days": [
26,
16,
17,
23,
21,
23,
24,
21,
22,
22,
22,
24
]
},
"Shanghai": {
"city": "Shanghai",
"lat": 31.23,
"lon": 121.47,
"hi": [
9.6,
11.0,
16.1,
20.4,
25.4,
28.5,
31.4,
32.4,
27.7,
22.8,
18.4,
10.9
],
"lo": [
1.9,
3.4,
7.2,
11.1,
16.1,
21.1,
24.9,
25.5,
21.3,
15.6,
10.3,
2.7
],
"rain": [
71,
71,
102,
88,
107,
222,
284,
158,
202,
55,
57,
35
],
"rain_days": [
8,
10,
12,
9,
11,
17,
20,
16,
13,
6,
8,
6
]
},
"Sicily": {
"city": "Sicily",
"lat": 37.5,
"lon": 15.09,
"hi": [
14.7,
16.1,
17.0,
19.1,
23.2,
29.5,
32.5,
32.7,
29.1,
24.5,
20.5,
17.0
],
"lo": [
7.3,
7.8,
9.2,
11.7,
15.3,
20.8,
23.7,
23.9,
21.5,
17.1,
13.8,
10.0
],
"rain": [
37,
56,
77,
41,
51,
11,
11,
5,
33,
99,
106,
44
],
"rain_days": [
6,
5,
10,
7,
7,
2,
1,
1,
7,
7,
10,
7
]
},
"Siena": {
"city": "Siena",
"lat": 43.3188,
"lon": 11.3328,
"hi": [
9.6,
12.7,
14.6,
17.5,
22.0,
29.1,
32.4,
31.9,
26.7,
21.1,
14.9,
11.5
],
"lo": [
1.5,
2.9,
3.8,
6.3,
11.1,
16.3,
19.0,
18.9,
15.2,
11.3,
7.2,
4.0
],
"rain": [
59,
37,
48,
77,
72,
52,
27,
44,
70,
90,
143,
123
],
"rain_days": [
9,
5,
5,
10,
13,
6,
5,
6,
7,
7,
13,
13
]
},
"Singapore": {
"city": "Singapore",
"lat": 1.35,
"lon": 103.82,
"hi": [
29.1,
30.1,
30.7,
30.2,
30.1,
29.2,
29.3,
29.4,
29.6,
29.8,
29.5,
29.1
],
"lo": [
23.5,
23.6,
24.0,
24.5,
25.3,
25.0,
24.8,
24.8,
24.7,
24.3,
23.9,
23.6
],
"rain": [
209,
114,
225,
290,
301,
394,
258,
261,
244,
336,
359,
335
],
"rain_days": [
23,
19,
25,
26,
27,
27,
24,
26,
24,
28,
27,
29
]
},
"Sint Maarten": {
"city": "Sint Maarten",
"lat": 18.04,
"lon": -63.05,
"hi": [
25.8,
25.6,
25.6,
26.0,
27.0,
27.8,
28.2,
28.5,
28.7,
28.5,
27.6,
26.7
],
"lo": [
24.3,
24.0,
24.1,
24.6,
25.6,
26.3,
26.5,
26.8,
26.9,
26.6,
26.0,
25.2
],
"rain": [
42,
40,
21,
32,
27,
47,
73,
85,
120,
119,
109,
39
],
"rain_days": [
13,
10,
9,
9,
9,
10,
14,
16,
16,
17,
15,
13
]
},
"Sintra": {
"city": "Sintra",
"lat": 38.95,
"lon": -9.39,
"hi": [
14.0,
15.8,
16.6,
17.1,
20.0,
20.5,
22.6,
22.8,
22.9,
20.9,
17.2,
15.6
],
"lo": [
8.6,
9.8,
10.6,
12.0,
14.3,
15.8,
17.0,
17.4,
17.2,
15.5,
12.6,
11.1
],
"rain": [
55,
48,
53,
79,
27,
23,
10,
8,
42,
82,
92,
112
],
"rain_days": [
9,
6,
9,
13,
6,
8,
3,
2,
8,
10,
14,
14
]
},
"Sorrento": {
"city": "Sorrento",
"lat": 40.626,
"lon": 14.375,
"hi": [
12.3,
13.7,
14.7,
17.0,
21.0,
26.9,
29.9,
29.9,
26.6,
22.1,
17.8,
14.7
],
"lo": [
6.2,
7.0,
7.8,
10.1,
14.2,
19.2,
22.3,
22.4,
19.6,
15.7,
12.5,
9.3
],
"rain": [
166,
80,
95,
84,
117,
33,
20,
35,
115,
94,
315,
220
],
"rain_days": [
14,
8,
11,
12,
13,
5,
4,
7,
8,
8,
19,
14
]
},
"Split": {
"city": "Split",
"lat": 43.5081,
"lon": 16.4402,
"hi": [
10.8,
12.9,
14.6,
17.2,
21.9,
28.0,
31.4,
31.0,
26.6,
21.7,
16.8,
13.2
],
"lo": [
3.8,
4.7,
6.3,
9.3,
14.3,
19.4,
22.0,
22.3,
18.2,
13.7,
10.6,
7.2
],
"rain": [
152,
63,
58,
113,
115,
39,
30,
71,
117,
98,
297,
237
],
"rain_days": [
10,
7,
7,
10,
11,
5,
3,
5,
8,
8,
15,
15
]
},
"Stockholm": {
"city": "Stockholm",
"lat": 59.33,
"lon": 18.07,
"hi": [
2.0,
2.8,
5.8,
10.0,
14.8,
22.3,
21.7,
21.3,
16.4,
10.7,
5.6,
1.4
],
"lo": [
-2.6,
-3.2,
-2.1,
0.0,
4.8,
11.7,
12.8,
12.9,
9.3,
5.2,
1.5,
-2.8
],
"rain": [
53,
39,
48,
22,
71,
60,
74,
90,
37,
68,
54,
55
],
"rain_days": [
11,
9,
9,
5,
12,
9,
12,
13,
7,
13,
11,
13
]
},
"Strasbourg": {
"city": "Strasbourg",
"lat": 48.58,
"lon": 7.75,
"hi": [
5.6,
9.7,
12.3,
15.7,
19.5,
25.8,
26.6,
26.0,
22.6,
16.9,
9.6,
6.7
],
"lo": [
0.3,
1.5,
2.7,
5.2,
9.5,
15.2,
15.8,
16.2,
12.5,
9.0,
4.0,
1.7
],
"rain": [
71,
66,
68,
63,
72,
71,
80,
70,
51,
100,
79,
108
],
"rain_days": [
12,
11,
12,
11,
12,
11,
11,
13,
9,
14,
15,
17
]
},
"Stuttgart": {
"city": "Stuttgart",
"lat": 48.78,
"lon": 9.18,
"hi": [
5.1,
9.1,
11.2,
14.2,
17.7,
24.1,
24.9,
24.5,
21.1,
16.5,
9.4,
6.5
],
"lo": [
-0.4,
1.0,
1.8,
4.0,
8.2,
13.9,
14.8,
15.1,
11.6,
8.5,
3.2,
1.2
],
"rain": [
59,
66,
63,
63,
75,
82,
62,
100,
53,
79,
64,
86
],
"rain_days": [
13,
12,
12,
11,
13,
13,
10,
14,
9,
15,
13,
17
]
},
"Sydney": {
"city": "Sydney",
"lat": -33.87,
"lon": 151.21,
"hi": [
26.5,
25.7,
24.5,
22.5,
19.4,
17.1,
17.1,
18.4,
20.8,
22.6,
23.3,
25.2
],
"lo": [
19.3,
18.7,
17.6,
13.8,
10.7,
8.5,
8.3,
8.4,
10.5,
12.7,
14.7,
16.8
],
"rain": [
97,
147,
211,
76,
73,
48,
99,
63,
57,
92,
84,
76
],
"rain_days": [
13,
16,
18,
10,
8,
10,
9,
7,
8,
11,
11,
11
]
},
"São Luís": {
"city": "São Luís",
"lat": -2.5297,
"lon": -44.3028,
"hi": [
29.3,
29.0,
28.5,
29.2,
29.7,
29.6,
30.1,
30.9,
31.4,
31.5,
31.4,
31.3
],
"lo": [
23.9,
23.8,
23.5,
23.7,
24.0,
23.7,
23.8,
24.3,
25.0,
25.3,
25.2,
25.3
],
"rain": [
287,
352,
584,
451,
264,
138,
83,
45,
42,
46,
93,
111
],
"rain_days": [
30,
27,
31,
29,
27,
23,
21,
16,
14,
13,
19,
21
]
},
"São Paulo": {
"city": "São Paulo",
"lat": -23.5505,
"lon": -46.6333,
"hi": [
27.3,
26.2,
26.5,
24.4,
22.7,
21.8,
22.3,
22.9,
26.1,
25.7,
25.6,
26.5
],
"lo": [
18.7,
18.0,
17.8,
15.6,
13.2,
12.6,
11.4,
12.5,
14.7,
16.1,
15.7,
17.4
],
"rain": [
228,
205,
142,
70,
40,
39,
32,
41,
56,
131,
110,
159
],
"rain_days": [
25,
20,
17,
11,
7,
7,
3,
6,
8,
16,
15,
22
]
},
"Taipei": {
"city": "Taipei",
"lat": 25.033,
"lon": 121.5654,
"hi": [
19.4,
20.7,
23.3,
25.3,
28.7,
31.4,
33.6,
32.7,
30.5,
27.0,
24.9,
20.1
],
"lo": [
14.0,
14.6,
16.1,
18.3,
22.0,
24.5,
25.8,
25.7,
24.1,
22.0,
19.4,
15.4
],
"rain": [
58,
79,
113,
100,
269,
231,
127,
201,
222,
147,
52,
96
],
"rain_days": [
12,
12,
13,
13,
19,
20,
18,
20,
15,
15,
12,
17
]
},
"Tallinn": {
"city": "Tallinn",
"lat": 59.44,
"lon": 24.75,
"hi": [
0.3,
0.7,
3.7,
8.7,
14.0,
21.5,
21.3,
20.9,
15.6,
10.1,
4.5,
0.1
],
"lo": [
-3.7,
-3.5,
-2.5,
0.8,
5.3,
12.3,
13.8,
13.7,
9.5,
5.6,
1.0,
-3.7
],
"rain": [
72,
58,
45,
34,
68,
47,
91,
96,
60,
85,
71,
59
],
"rain_days": [
16,
14,
12,
8,
11,
9,
15,
14,
13,
16,
16,
16
]
},
"Tbilisi": {
"city": "Tbilisi",
"lat": 41.6941,
"lon": 44.7833,
"hi": [
6.0,
7.4,
9.9,
15.9,
20.7,
26.7,
28.4,
29.4,
23.1,
17.6,
11.6,
7.1
],
"lo": [
-2.0,
-1.2,
1.1,
6.1,
10.9,
16.5,
18.3,
19.2,
14.5,
9.7,
4.1,
-0.1
],
"rain": [
12,
20,
80,
91,
93,
92,
42,
27,
76,
52,
42,
26
],
"rain_days": [
4,
5,
12,
13,
12,
11,
7,
5,
10,
8,
7,
7
]
},
"The Bahamas": {
"city": "The Bahamas",
"lat": 25.05,
"lon": -77.35,
"hi": [
24.9,
25.9,
26.4,
27.4,
28.1,
29.5,
30.8,
31.1,
30.4,
29.1,
27.2,
25.7
],
"lo": [
21.0,
22.0,
22.1,
23.2,
24.2,
25.8,
27.0,
27.2,
26.8,
25.6,
24.0,
22.1
],
"rain": [
32,
34,
35,
52,
106,
87,
72,
82,
105,
96,
69,
57
],
"rain_days": [
10,
12,
10,
14,
18,
19,
18,
18,
17,
18,
12,
11
]
},
"Tokyo": {
"city": "Tokyo",
"lat": 35.6895,
"lon": 139.6917,
"hi": [
9.0,
10.8,
15.3,
18.3,
22.9,
26.2,
29.6,
32.0,
27.9,
21.5,
17.5,
11.6
],
"lo": [
-0.1,
0.9,
5.5,
8.9,
14.3,
18.7,
22.7,
24.4,
20.9,
13.9,
8.3,
2.3
],
"rain": [
50,
54,
132,
162,
146,
196,
241,
131,
198,
219,
80,
65
],
"rain_days": [
6,
7,
12,
11,
12,
16,
20,
14,
14,
13,
8,
7
]
},
"Toledo": {
"city": "Toledo",
"lat": 39.856,
"lon": -4.025,
"hi": [
10.4,
15.0,
17.1,
19.2,
25.5,
29.9,
35.2,
33.9,
26.8,
22.6,
14.7,
12.3
],
"lo": [
2.0,
4.5,
6.5,
8.5,
12.9,
17.0,
21.4,
20.7,
15.9,
12.3,
7.2,
5.1
],
"rain": [
28,
15,
42,
65,
31,
19,
2,
10,
62,
53,
43,
66
],
"rain_days": [
5,
3,
7,
12,
4,
4,
0,
2,
6,
6,
9,
9
]
},
"Toronto": {
"city": "Toronto",
"lat": 43.65,
"lon": -79.38,
"hi": [
-0.1,
0.6,
5.5,
10.8,
17.1,
23.4,
26.5,
25.8,
21.9,
15.1,
7.8,
3.7
],
"lo": [
-7.0,
-7.9,
-3.2,
2.0,
7.7,
14.3,
17.8,
17.4,
13.8,
8.2,
0.8,
-2.2
],
"rain": [
73,
71,
68,
84,
61,
97,
85,
70,
65,
89,
61,
80
],
"rain_days": [
9,
11,
11,
13,
10,
9,
11,
11,
10,
12,
9,
12
]
},
"Tromso": {
"city": "Tromso",
"lat": 69.65,
"lon": 18.96,
"hi": [
-2.6,
-1.9,
-0.7,
2.8,
7.0,
13.8,
16.7,
15.5,
10.5,
4.1,
-0.3,
-2.6
],
"lo": [
-6.8,
-6.2,
-5.3,
-1.8,
1.3,
7.5,
10.3,
9.7,
5.9,
-0.3,
-4.4,
-7.2
],
"rain": [
148,
148,
165,
125,
121,
92,
124,
136,
141,
99,
84,
81
],
"rain_days": [
17,
18,
21,
19,
17,
17,
14,
19,
20,
16,
15,
12
]
},
"Turin": {
"city": "Turin",
"lat": 45.07,
"lon": 7.69,
"hi": [
8.0,
11.7,
14.8,
18.3,
21.9,
27.9,
30.8,
29.6,
24.7,
19.0,
12.0,
7.3
],
"lo": [
-2.4,
-0.0,
2.8,
6.6,
11.4,
16.8,
19.3,
18.5,
14.6,
10.0,
3.4,
-0.9
],
"rain": [
31,
18,
22,
80,
138,
88,
76,
86,
75,
79,
97,
53
],
"rain_days": [
5,
3,
6,
9,
15,
12,
10,
10,
8,
9,
9,
8
]
},
"Turks and Caicos": {
"city": "Turks and Caicos",
"lat": 21.8,
"lon": -72.3,
"hi": [
25.5,
25.4,
25.4,
26.1,
27.3,
28.4,
28.8,
29.1,
29.2,
28.9,
27.6,
26.4
],
"lo": [
24.1,
24.2,
24.0,
24.7,
25.7,
26.9,
27.3,
27.6,
27.3,
27.0,
25.9,
24.9
],
"rain": [
35,
17,
25,
38,
82,
58,
55,
39,
105,
72,
82,
42
],
"rain_days": [
9,
6,
6,
8,
14,
10,
9,
9,
16,
15,
13,
9
]
},
"Valletta": {
"city": "Valletta",
"lat": 35.8997,
"lon": 14.5146,
"hi": [
15.1,
15.5,
16.1,
18.2,
21.9,
27.6,
31.0,
30.8,
28.1,
24.5,
21.1,
17.7
],
"lo": [
11.3,
11.1,
12.1,
13.8,
17.0,
21.4,
24.5,
25.4,
23.7,
20.2,
17.0,
14.0
],
"rain": [
40,
36,
37,
18,
17,
3,
2,
3,
28,
61,
79,
39
],
"rain_days": [
9,
3,
7,
4,
4,
1,
0,
1,
5,
6,
11,
8
]
},
"Vancouver": {
"city": "Vancouver",
"lat": 49.28,
"lon": -123.12,
"hi": [
6.5,
5.3,
8.8,
11.4,
15.9,
18.9,
21.9,
22.3,
18.6,
12.9,
8.2,
5.6
],
"lo": [
2.0,
0.4,
2.5,
4.9,
9.3,
12.4,
14.7,
15.3,
12.8,
8.0,
3.5,
1.4
],
"rain": [
261,
119,
105,
116,
73,
67,
37,
41,
131,
194,
265,
258
],
"rain_days": [
20,
16,
13,
14,
9,
11,
6,
6,
12,
14,
17,
21
]
},
"Venice": {
"city": "Venice",
"lat": 45.44,
"lon": 12.34,
"hi": [
7.6,
10.1,
12.8,
15.7,
20.2,
26.1,
28.4,
28.3,
24.3,
19.3,
13.3,
8.9
],
"lo": [
0.7,
2.5,
4.8,
8.4,
13.5,
19.0,
20.7,
20.6,
16.8,
12.3,
6.9,
3.0
],
"rain": [
50,
21,
30,
86,
127,
61,
62,
73,
83,
66,
135,
90
],
"rain_days": [
6,
3,
4,
9,
14,
7,
8,
8,
9,
8,
11,
10
]
},
"Verona": {
"city": "Verona",
"lat": 45.44,
"lon": 10.99,
"hi": [
7.7,
11.7,
14.7,
17.9,
22.0,
28.3,
30.6,
29.8,
25.3,
20.0,
13.0,
8.7
],
"lo": [
-0.0,
2.4,
4.5,
8.1,
13.1,
18.3,
20.5,
20.0,
15.8,
11.4,
5.7,
2.4
],
"rain": [
42,
26,
34,
75,
137,
58,
73,
66,
63,
77,
116,
90
],
"rain_days": [
5,
4,
6,
9,
16,
9,
10,
9,
7,
7,
11,
9
]
},
"Victoria": {
"city": "Victoria",
"lat": 48.43,
"lon": -123.37,
"hi": [
7.4,
6.4,
9.4,
12.2,
17.1,
20.4,
23.6,
23.8,
19.5,
13.6,
9.1,
6.7
],
"lo": [
3.1,
1.6,
3.2,
5.8,
9.6,
12.1,
14.6,
15.4,
12.9,
8.3,
4.7,
2.8
],
"rain": [
178,
96,
57,
66,
42,
35,
15,
18,
70,
116,
166,
169
],
"rain_days": [
18,
15,
12,
13,
8,
6,
3,
4,
9,
13,
16,
19
]
},
"Vienna": {
"city": "Vienna",
"lat": 48.21,
"lon": 16.37,
"hi": [
4.4,
8.4,
11.5,
14.9,
18.7,
25.6,
27.3,
26.2,
21.9,
16.5,
9.5,
5.4
],
"lo": [
-1.1,
0.7,
2.0,
5.2,
9.8,
15.7,
17.1,
17.0,
12.7,
8.3,
3.5,
0.2
],
"rain": [
42,
29,
22,
53,
84,
86,
63,
86,
65,
49,
52,
56
],
"rain_days": [
11,
8,
5,
10,
14,
12,
9,
11,
9,
9,
10,
12
]
},
"Virgin Islands": {
"city": "Virgin Islands",
"lat": 18.34,
"lon": -64.9,
"hi": [
25.5,
25.2,
25.1,
25.6,
26.6,
27.4,
27.8,
28.1,
28.3,
28.1,
27.3,
26.4
],
"lo": [
23.9,
23.7,
23.7,
24.2,
25.2,
25.9,
26.2,
26.4,
26.5,
26.2,
25.6,
24.8
],
"rain": [
39,
38,
26,
35,
41,
49,
92,
99,
112,
138,
87,
39
],
"rain_days": [
13,
10,
8,
8,
9,
12,
14,
15,
16,
18,
15,
12
]
},
"Washington DC": {
"city": "Washington DC",
"lat": 38.9072,
"lon": -77.0369,
"hi": [
6.9,
9.3,
13.8,
19.0,
23.3,
28.7,
31.7,
29.9,
26.4,
20.5,
13.5,
9.4
],
"lo": [
-1.5,
-0.3,
3.0,
7.6,
12.5,
17.8,
21.4,
20.5,
16.7,
11.1,
3.9,
0.7
],
"rain": [
80,
97,
90,
106,
104,
133,
167,
196,
118,
115,
87,
121
],
"rain_days": [
9,
11,
10,
12,
11,
13,
15,
16,
9,
10,
7,
9
]
},
"Wellington": {
"city": "Wellington",
"lat": -41.29,
"lon": 174.78,
"hi": [
19.9,
19.7,
18.5,
16.7,
15.5,
13.5,
12.6,
12.4,
13.4,
14.6,
16.7,
18.2
],
"lo": [
15.2,
15.2,
14.1,
12.7,
11.8,
9.9,
8.6,
8.6,
9.4,
10.4,
12.5,
13.8
],
"rain": [
34,
94,
89,
88,
103,
121,
118,
102,
88,
69,
91,
91
],
"rain_days": [
7,
9,
10,
10,
11,
12,
14,
12,
12,
12,
12,
11
]
},
"Whistler": {
"city": "Whistler",
"lat": 50.12,
"lon": -122.96,
"hi": [
2.3,
0.7,
5.4,
8.5,
15.5,
19.0,
22.7,
23.4,
18.5,
11.6,
5.1,
1.2
],
"lo": [
-2.9,
-5.8,
-2.7,
-0.3,
4.5,
8.3,
11.5,
12.1,
8.9,
3.8,
-1.9,
-4.2
],
"rain": [
351,
142,
129,
142,
88,
85,
62,
55,
158,
231,
277,
285
],
"rain_days": [
21,
16,
16,
15,
12,
15,
9,
8,
12,
15,
17,
22
]
},
"Yellowstone": {
"city": "Yellowstone",
"lat": 44.43,
"lon": -110.59,
"hi": [
-6.6,
-7.3,
-2.0,
1.5,
7.1,
13.9,
21.7,
20.5,
15.6,
5.8,
-1.1,
-5.8
],
"lo": [
-12.1,
-13.4,
-9.5,
-6.8,
-2.0,
2.6,
7.9,
9.0,
4.9,
-2.0,
-7.2,
-11.6
],
"rain": [
49,
76,
51,
63,
59,
49,
29,
50,
59,
67,
52,
66
],
"rain_days": [
13,
14,
11,
13,
13,
11,
9,
9,
8,
12,
11,
13
]
},
"Zhangjiajie": {
"city": "Zhangjiajie",
"lat": 29.34,
"lon": 110.54,
"hi": [
8.5,
10.6,
16.6,
20.1,
24.1,
28.1,
30.0,
30.8,
27.3,
20.6,
16.5,
10.2
],
"lo": [
2.4,
3.8,
9.2,
12.7,
17.2,
21.6,
23.8,
24.3,
20.6,
14.5,
9.9,
3.5
],
"rain": [
70,
72,
135,
211,
199,
266,
242,
180,
71,
91,
71,
38
],
"rain_days": [
10,
13,
15,
15,
16,
19,
21,
15,
10,
12,
11,
6
]
},
"Zurich": {
"city": "Zurich",
"lat": 47.37,
"lon": 8.54,
"hi": [
4.2,
8.5,
10.8,
14.2,
17.5,
23.9,
24.9,
24.2,
20.7,
15.8,
8.6,
5.3
],
"lo": [
-1.5,
-0.3,
1.1,
3.8,
8.0,
13.7,
15.3,
15.2,
11.9,
7.9,
2.9,
-0.2
],
"rain": [
81,
68,
66,
87,
136,
121,
149,
136,
87,
107,
109,
122
],
"rain_days": [
12,
12,
11,
11,
17,
14,
15,
12,
11,
13,
16,
17
]
}
}