{"_meta":{"source":"Open-Meteo Historical Weather API (archive-api.open-meteo.com)","description":"Climate normals \u2014 avg daily high/low (\u00b0C) per calendar month. Typical averages, not a forecast.","window":"2019-2023","generated":"2026-06-16","keys":"guide folder name; hi[]/lo[] are 12 values Jan..Dec in \u00b0C"},"Abu Dhabi":{"city":"Abu Dhabi","lat":24.4539,"lon":54.3773,"hi":[23.4,25.3,29.4,32.4,36.0,38.6,40.1,41.1,38.5,34.9,30.8,26.5],"lo":[17.5,18.3,21.1,23.4,26.9,30.1,31.9,31.6,30.2,27.3,24.1,20.1]},"Aix-en-Provence":{"city":"Aix-en-Provence","lat":43.5297,"lon":5.4474,"hi":[10.1,13.3,15.6,18.2,22.2,28.2,31.6,30.7,25.8,21.0,14.5,11.4],"lo":[1.0,3.2,4.7,7.2,11.3,16.5,18.9,18.2,14.9,11.2,6.1,3.3]},"Alaska":{"city":"Alaska","lat":64.2,"lon":-153.0,"hi":[-14.5,-14.9,-6.4,1.0,12.9,18.6,20.0,16.3,9.7,0.5,-9.9,-13.5],"lo":[-20.2,-21.6,-15.3,-9.7,2.7,9.4,11.7,9.4,2.7,-4.9,-15.6,-20.8]},"Alesund":{"city":"Alesund","lat":62.47,"lon":6.15,"hi":[3.6,4.3,5.7,8.9,11.1,16.6,16.7,17.1,14.5,10.1,5.8,2.8],"lo":[-0.2,-0.0,0.4,2.1,5.3,10.6,11.4,11.5,9.2,5.2,1.8,-0.8]},"Amalfi":{"city":"Amalfi","lat":40.634,"lon":14.6027,"hi":[12.5,14.2,15.4,17.7,21.7,27.8,30.8,30.8,27.4,22.7,18.0,14.9],"lo":[5.1,5.8,6.9,9.6,13.9,18.6,21.5,21.7,18.8,14.6,11.7,8.4]},"Amsterdam":{"city":"Amsterdam","lat":52.37,"lon":4.9,"hi":[7.1,8.9,10.3,13.0,16.1,21.4,21.2,22.1,19.7,15.2,10.5,7.5],"lo":[2.7,3.1,3.4,4.7,8.0,13.0,13.9,14.7,12.0,9.7,5.4,3.0]},"Annecy":{"city":"Annecy","lat":45.9,"lon":6.13,"hi":[6.1,10.3,12.2,15.0,18.4,24.1,26.4,26.1,22.1,17.4,10.4,7.6],"lo":[-0.2,1.1,2.6,4.9,8.9,14.4,16.3,16.1,13.4,9.4,4.4,1.8]},"Aruba":{"city":"Aruba","lat":12.52,"lon":-70.02,"hi":[28.5,28.5,28.8,29.5,30.2,30.5,30.4,31.1,31.8,30.8,29.5,29.2],"lo":[24.9,24.8,24.9,25.5,26.2,26.5,26.5,27.0,27.4,26.8,26.1,25.8]},"Athens":{"city":"Athens","lat":37.98,"lon":23.73,"hi":[12.2,13.2,15.0,18.7,24.6,29.3,33.6,33.1,28.5,23.8,19.0,14.9],"lo":[5.4,5.9,7.2,10.3,15.6,19.9,23.2,23.0,19.5,15.3,11.8,8.5]},"Atlanta":{"city":"Atlanta","lat":33.77,"lon":-84.39,"hi":[12.0,15.1,18.6,21.5,25.9,29.5,30.6,30.2,27.1,22.3,16.6,14.2],"lo":[2.6,4.8,7.5,10.0,15.2,19.4,21.4,21.3,17.2,11.9,6.4,5.0]},"Austin":{"city":"Austin","lat":30.27,"lon":-97.74,"hi":[16.9,16.5,23.5,26.4,29.8,34.4,35.4,35.9,33.8,27.7,19.9,19.3],"lo":[6.0,4.6,11.4,15.5,19.9,23.7,25.0,25.4,23.0,17.2,10.9,9.6]},"Azores":{"city":"Azores","lat":37.74,"lon":-25.67,"hi":[16.8,16.5,17.0,17.6,19.2,20.9,23.4,24.9,23.6,21.8,19.5,17.5],"lo":[13.7,12.6,13.3,13.9,15.1,16.9,18.9,20.5,19.6,18.2,16.1,14.3]},"Bali":{"city":"Bali","lat":-8.4095,"lon":115.1889,"hi":[26.3,26.6,26.6,26.3,26.1,25.1,23.7,24.0,24.8,26.0,26.5,26.7],"lo":[21.3,21.3,21.1,21.1,21.0,20.3,19.4,19.3,19.8,20.5,21.0,21.2]},"Bangkok":{"city":"Bangkok","lat":13.7563,"lon":100.5018,"hi":[31.2,31.9,33.0,33.4,33.2,33.1,31.8,31.5,30.6,30.7,31.0,30.8],"lo":[21.1,22.9,25.4,26.1,26.1,26.1,25.7,25.4,24.9,24.2,23.6,21.7]},"Barbados":{"city":"Barbados","lat":13.19,"lon":-59.54,"hi":[26.4,26.5,26.9,27.5,28.2,28.2,27.8,28.2,29.1,28.2,27.5,27.0],"lo":[22.0,21.8,22.0,22.5,23.5,23.7,23.6,23.7,24.0,23.9,23.3,22.8]},"Barcelona":{"city":"Barcelona","lat":41.39,"lon":2.17,"hi":[13.2,15.2,16.3,17.7,21.4,25.9,28.7,28.9,25.8,22.3,17.8,15.4],"lo":[4.0,6.1,8.0,9.9,13.7,18.6,21.6,21.7,18.5,14.8,9.6,6.4]},"Beijing":{"city":"Beijing","lat":39.9,"lon":116.4,"hi":[2.0,6.4,14.8,21.4,27.3,32.5,31.7,29.5,26.6,18.7,9.8,2.2],"lo":[-7.3,-4.7,1.4,8.1,13.9,20.0,22.6,21.0,16.6,8.1,0.1,-6.6]},"Bend":{"city":"Bend","lat":44.06,"lon":-121.31,"hi":[6.2,6.1,8.5,12.2,17.1,23.6,30.3,28.8,23.0,16.6,8.6,4.7],"lo":[-1.9,-3.4,-2.2,0.0,4.6,9.4,13.6,13.6,8.8,4.8,-0.2,-2.7]},"Bergen":{"city":"Bergen","lat":60.39,"lon":5.32,"hi":[3.3,4.2,5.9,10.0,11.8,17.8,17.2,17.8,14.8,10.1,6.2,3.0],"lo":[-1.0,-1.0,0.0,1.3,4.7,9.8,10.6,11.1,8.8,5.1,1.6,-1.7]},"Berlin":{"city":"Berlin","lat":52.52,"lon":13.4,"hi":[4.8,7.1,9.7,13.6,18.0,25.7,24.5,25.1,20.6,15.3,8.7,4.9],"lo":[0.4,0.3,1.3,3.7,8.2,14.7,15.1,15.8,11.5,8.4,3.5,0.5]},"Big Island":{"city":"Big Island","lat":19.6,"lon":-155.5,"hi":[14.2,12.5,13.8,13.6,14.8,16.4,17.6,17.2,17.4,17.5,15.9,14.2],"lo":[4.8,4.2,5.5,6.1,6.8,7.3,8.2,8.0,8.1,8.1,6.9,6.4]},"Bologna":{"city":"Bologna","lat":44.49,"lon":11.34,"hi":[8.0,12.1,14.8,17.7,21.8,29.0,31.5,31.0,25.8,20.7,13.3,8.8],"lo":[0.6,2.9,4.6,7.5,12.7,18.1,20.3,20.0,16.0,12.0,6.7,2.6]},"Bordeaux":{"city":"Bordeaux","lat":44.8378,"lon":-0.5792,"hi":[9.7,13.7,15.4,17.9,21.3,25.0,27.5,27.6,25.3,20.5,14.0,11.7],"lo":[3.2,4.8,6.3,8.4,11.5,15.5,16.9,17.1,15.0,12.0,7.3,5.5]},"Boston":{"city":"Boston","lat":42.36,"lon":-71.06,"hi":[3.2,4.4,9.2,13.9,20.5,25.2,28.2,27.7,22.8,18.1,10.8,7.0],"lo":[-4.7,-5.9,-1.5,4.3,9.9,15.1,18.9,18.7,14.9,9.8,2.0,-0.9]},"Bruges":{"city":"Bruges","lat":51.21,"lon":3.22,"hi":[7.2,9.6,11.2,13.6,16.6,21.6,21.9,22.7,20.5,16.0,10.8,8.1],"lo":[2.6,3.2,3.9,4.9,8.3,12.8,13.9,14.7,12.6,9.9,5.7,3.6]},"Brussels":{"city":"Brussels","lat":50.85,"lon":4.35,"hi":[6.4,9.3,11.1,14.0,17.5,22.8,22.6,23.5,20.7,15.8,10.2,7.5],"lo":[1.8,2.8,3.5,4.7,8.1,13.3,13.9,14.8,12.3,9.7,5.2,3.2]},"Buenos Aires":{"city":"Buenos Aires","lat":-34.61,"lon":-58.38,"hi":[28.9,26.9,25.3,21.4,17.3,14.1,14.7,15.8,17.7,21.4,25.0,27.1],"lo":[21.3,19.0,18.8,15.1,10.3,7.5,8.1,8.5,11.0,13.0,16.7,19.5]},"Cambridge":{"city":"Cambridge","lat":52.2053,"lon":0.1218,"hi":[7.4,9.9,11.0,13.5,16.7,20.7,22.4,22.8,20.5,15.5,10.8,8.3],"lo":[1.8,3.2,3.9,4.1,7.7,11.8,13.8,14.0,11.9,9.0,5.2,3.4]},"Cannes":{"city":"Cannes","lat":43.5528,"lon":7.0174,"hi":[12.5,14.3,15.8,17.4,21.4,26.3,29.4,29.7,26.2,21.7,17.0,13.9],"lo":[5.0,6.5,7.9,10.1,14.1,18.9,21.7,21.6,18.4,14.5,9.8,6.9]},"Capri":{"city":"Capri","lat":40.55,"lon":14.24,"hi":[12.8,13.0,13.3,14.8,18.3,23.2,26.3,26.5,24.6,21.1,18.3,15.2],"lo":[10.3,10.7,11.2,12.7,16.3,21.0,24.3,24.6,22.3,18.9,15.7,13.1]},"Cascais":{"city":"Cascais","lat":38.7,"lon":-9.55,"hi":[14.6,16.1,17.0,17.4,20.1,20.5,22.5,22.4,22.7,20.8,17.6,16.1],"lo":[9.8,10.9,11.7,13.0,15.3,16.4,17.6,17.8,17.9,16.3,13.5,12.2]},"Cayman Islands":{"city":"Cayman Islands","lat":19.31,"lon":-81.24,"hi":[27.6,28.0,28.3,29.3,29.9,30.4,31.3,31.3,31.0,30.0,28.9,28.1],"lo":[24.4,24.6,24.5,25.2,25.8,26.6,27.1,26.9,26.9,26.4,25.9,25.1]},"Chicago":{"city":"Chicago","lat":41.88,"lon":-87.63,"hi":[0.6,1.0,8.3,13.8,19.4,25.9,26.7,26.8,23.7,16.9,9.2,5.2],"lo":[-6.5,-7.7,-0.2,4.4,10.4,16.5,18.8,19.2,16.0,9.6,1.3,-1.8]},"Chongqing":{"city":"Chongqing","lat":29.56,"lon":106.55,"hi":[11.1,14.6,20.0,22.9,25.8,29.0,32.4,33.7,29.0,22.7,18.1,12.3],"lo":[4.5,7.2,11.7,14.9,18.6,21.9,24.9,26.0,21.6,16.6,11.7,6.5]},"Cinque Terre":{"city":"Cinque Terre","lat":44.13,"lon":9.68,"hi":[11.7,13.3,14.7,16.9,20.5,25.6,28.5,28.7,25.3,20.8,16.3,13.3],"lo":[6.3,7.3,8.3,10.4,14.7,19.4,22.0,22.1,18.9,15.4,11.0,8.2]},"Colmar":{"city":"Colmar","lat":48.08,"lon":7.36,"hi":[5.6,9.9,12.0,15.0,18.5,24.7,25.9,25.4,21.9,16.9,9.8,7.0],"lo":[0.0,1.5,2.9,5.5,9.2,14.9,15.5,15.6,12.4,8.8,3.9,1.8]},"Copenhagen":{"city":"Copenhagen","lat":55.68,"lon":12.57,"hi":[4.8,5.5,7.1,10.4,14.1,20.0,20.3,20.7,17.7,13.2,8.5,4.9],"lo":[1.5,1.4,1.8,3.7,7.9,13.4,14.7,15.1,12.9,9.4,5.9,2.1]},"Corfu":{"city":"Corfu","lat":39.62,"lon":19.92,"hi":[12.9,14.2,15.2,17.6,22.2,27.8,32.0,31.6,27.4,22.9,18.9,15.3],"lo":[8.6,9.0,9.9,12.0,16.0,20.7,23.8,24.2,21.5,17.8,14.7,11.5]},"Cusco":{"city":"Cusco","lat":-13.525,"lon":-71.978,"hi":[16.0,15.9,15.8,16.3,16.5,17.0,18.2,18.4,18.7,19.1,18.2,17.3],"lo":[7.3,7.8,7.1,6.4,5.4,4.1,4.4,5.1,6.2,7.4,7.9,8.1]},"Dubai":{"city":"Dubai","lat":25.2048,"lon":55.2708,"hi":[23.7,25.5,29.5,32.2,36.0,39.4,40.4,40.9,38.9,35.2,31.2,26.9],"lo":[15.1,16.5,19.4,21.4,24.9,28.2,31.1,30.1,28.3,24.9,21.7,17.8]},"Dublin":{"city":"Dublin","lat":53.33,"lon":-6.27,"hi":[7.6,9.3,10.2,11.8,15.0,17.6,19.3,18.8,17.2,13.6,10.1,8.0],"lo":[3.0,3.9,3.8,4.7,7.6,10.5,12.5,12.3,10.7,8.3,5.5,3.7]},"Dubrovnik":{"city":"Dubrovnik","lat":42.6507,"lon":18.0944,"hi":[11.0,12.7,14.2,16.7,21.4,26.8,30.1,30.0,26.1,21.7,17.2,13.5],"lo":[3.4,4.5,6.1,8.9,13.9,18.8,21.3,21.5,17.9,13.4,10.5,7.0]},"Edinburgh":{"city":"Edinburgh","lat":55.95,"lon":-3.19,"hi":[6.5,7.9,8.9,10.7,13.6,16.8,18.4,17.9,16.4,12.4,9.1,6.7],"lo":[2.5,3.1,3.2,3.8,6.9,10.3,12.2,12.1,10.5,7.8,4.8,2.8]},"Florence":{"city":"Florence","lat":43.77,"lon":11.26,"hi":[10.4,13.5,15.5,18.4,22.4,29.2,32.5,32.1,27.4,22.0,15.8,12.4],"lo":[2.0,3.3,4.5,6.8,11.8,16.4,19.0,19.3,15.6,11.9,8.0,4.6]},"Geneva":{"city":"Geneva","lat":46.2,"lon":6.14,"hi":[5.2,9.1,11.5,14.8,18.3,24.4,26.8,26.3,22.2,16.6,9.6,6.7],"lo":[-0.4,1.0,2.8,5.4,9.5,15.0,16.9,16.6,13.7,9.2,4.0,1.1]},"Glasgow":{"city":"Glasgow","lat":55.86,"lon":-4.25,"hi":[6.4,7.8,9.2,11.9,14.4,17.9,18.6,18.4,16.6,12.3,9.0,6.4],"lo":[1.5,2.5,2.5,3.3,6.4,10.2,11.7,11.5,9.8,7.0,3.9,1.9]},"Gothenburg":{"city":"Gothenburg","lat":57.7,"lon":11.97,"hi":[3.6,4.0,6.2,11.0,14.1,20.2,19.6,19.8,16.7,11.5,6.8,2.9],"lo":[-0.5,-1.0,-0.4,1.8,6.3,12.1,13.5,13.4,10.8,7.2,3.2,-1.0]},"Helsinki":{"city":"Helsinki","lat":60.17,"lon":25.0,"hi":[0.0,0.3,2.2,7.8,12.8,20.1,20.8,19.9,14.9,9.5,4.5,0.3],"lo":[-4.6,-4.8,-3.5,0.3,5.2,12.5,13.9,13.8,9.6,5.2,1.0,-3.6]},"Hong Kong":{"city":"Hong Kong","lat":22.3,"lon":114.16,"hi":[18.2,19.2,22.4,24.3,26.8,28.5,29.9,29.2,29.4,26.7,24.2,19.5],"lo":[12.5,13.5,17.8,20.2,23.4,25.4,26.2,25.6,25.1,21.8,18.8,12.9]},"Iceland":{"city":"Iceland","lat":64.1,"lon":-22.0,"hi":[1.4,2.7,3.0,6.4,8.5,10.9,13.0,13.5,10.6,6.7,4.8,0.4],"lo":[-3.1,-1.4,-1.5,1.5,3.6,6.6,8.5,8.9,6.2,2.5,0.8,-3.6]},"Kauai":{"city":"Kauai","lat":22.05,"lon":-159.5,"hi":[18.3,17.6,18.1,18.1,18.9,20.3,20.5,21.1,21.0,20.4,19.3,17.5],"lo":[10.3,10.6,11.1,11.4,12.2,13.1,14.0,13.7,13.9,13.1,12.4,11.4]},"Kyoto":{"city":"Kyoto","lat":35.0116,"lon":135.7681,"hi":[7.8,9.2,15.1,19.1,22.7,26.5,30.8,31.5,28.5,21.9,17.0,10.6],"lo":[-1.6,-0.6,3.8,8.1,12.5,17.7,22.7,23.8,20.7,12.4,6.8,0.9]},"Lagos":{"city":"Lagos","lat":37.1,"lon":-8.67,"hi":[16.1,17.6,19.0,20.5,24.7,26.1,29.4,29.7,26.8,24.3,19.7,17.5],"lo":[9.2,10.6,11.3,12.7,15.5,16.9,18.8,19.1,18.3,16.4,13.0,11.5]},"Lake Como":{"city":"Lake Como","lat":45.81,"lon":9.08,"hi":[8.8,11.5,13.8,16.3,21.2,27.0,28.8,28.0,23.6,19.4,13.0,9.6],"lo":[1.7,2.9,4.5,7.2,12.7,17.9,19.9,19.7,16.4,12.6,6.5,3.0]},"Lille":{"city":"Lille","lat":50.63,"lon":3.06,"hi":[6.8,9.2,11.7,12.9,17.6,23.0,22.9,22.9,21.6,17.1,10.7,7.8],"lo":[1.9,2.6,3.5,3.9,8.4,13.2,14.1,14.3,12.9,9.8,5.6,3.4]},"Lima":{"city":"Lima","lat":-12.0464,"lon":-77.0428,"hi":[23.4,24.3,24.5,23.1,20.8,19.7,19.2,18.8,18.7,19.0,20.3,22.2],"lo":[19.1,19.9,20.1,18.7,16.4,15.2,14.6,14.4,14.3,14.7,15.8,17.9]},"Lisbon":{"city":"Lisbon","lat":38.72,"lon":-9.14,"hi":[14.5,16.3,17.9,20.3,23.6,25.4,28.8,28.5,25.4,24.2,18.3,16.3],"lo":[8.3,9.3,10.5,12.1,14.6,16.6,17.9,18.4,17.6,16.3,11.9,11.0]},"Ljubljana":{"city":"Ljubljana","lat":46.05,"lon":14.51,"hi":[5.5,9.0,11.9,14.1,19.5,26.8,28.5,26.4,22.4,18.0,10.4,5.9],"lo":[-2.5,-1.8,-0.9,2.6,9.1,14.3,16.2,15.1,11.1,7.5,2.4,-0.9]},"London":{"city":"London","lat":51.51,"lon":-0.13,"hi":[7.4,9.5,11.3,13.1,16.8,21.9,22.9,22.4,21.0,16.8,11.3,8.8],"lo":[1.2,2.8,3.8,3.7,8.0,12.0,14.1,13.7,12.5,9.6,5.3,3.8]},"Los Angeles":{"city":"Los Angeles","lat":34.05,"lon":-118.24,"hi":[18.6,20.6,20.4,24.1,24.4,27.7,31.1,31.3,30.2,27.2,23.8,18.4],"lo":[7.4,7.2,8.7,11.2,13.1,15.1,17.1,17.9,17.7,14.6,10.4,8.5]},"Lucerne":{"city":"Lucerne","lat":47.05,"lon":8.31,"hi":[4.8,8.5,11.2,12.9,18.0,24.6,24.7,23.9,21.1,17.1,9.1,6.0],"lo":[-0.4,0.2,1.4,3.8,8.9,14.4,16.1,15.7,13.3,9.4,4.0,0.7]},"Luxembourg":{"city":"Luxembourg","lat":49.61,"lon":6.13,"hi":[4.4,7.4,10.1,11.9,17.2,23.5,23.2,22.9,20.2,15.7,8.3,5.8],"lo":[0.2,0.9,1.7,2.9,8.0,13.4,13.5,13.9,11.1,8.2,3.8,1.9]},"Lyon":{"city":"Lyon","lat":45.764,"lon":4.8357,"hi":[5.9,10.7,13.6,15.8,20.9,27.0,27.9,27.9,24.3,19.4,10.9,7.9],"lo":[0.3,1.7,3.6,5.8,10.9,16.3,16.8,16.8,13.9,10.5,4.8,2.1]},"MachuPicchu":{"city":"MachuPicchu","lat":-13.163,"lon":-72.545,"hi":[17.7,18.0,18.1,18.2,18.1,17.9,19.2,19.1,19.4,19.5,18.9,18.9],"lo":[11.2,11.4,10.8,10.6,9.7,8.4,8.8,9.3,10.2,11.1,11.3,11.2]},"Madeira":{"city":"Madeira","lat":32.66,"lon":-16.92,"hi":[17.5,17.6,18.7,19.7,21.2,22.5,24.9,26.6,24.6,24.5,21.1,19.3],"lo":[13.1,12.5,13.2,13.9,15.7,17.0,18.5,19.7,18.8,18.5,15.5,14.5]},"Madrid":{"city":"Madrid","lat":40.42,"lon":-3.7,"hi":[9.9,14.4,16.5,20.0,25.0,29.6,34.8,34.3,25.9,22.7,14.5,11.7],"lo":[0.3,2.9,5.4,7.7,11.9,16.6,20.2,20.1,15.0,11.6,6.0,3.8]},"Marktoberdorf":{"city":"Marktoberdorf","lat":47.78,"lon":10.62,"hi":[2.9,6.8,9.0,10.2,15.7,22.4,22.3,21.5,18.6,15.6,7.1,4.7],"lo":[-3.8,-2.2,-1.3,1.0,6.6,11.7,12.8,12.3,9.3,5.8,0.1,-2.4]},"Marrakech":{"city":"Marrakech","lat":31.63,"lon":-7.99,"hi":[20.1,21.6,23.6,27.2,31.4,33.9,40.1,38.6,32.6,31.4,25.1,22.0],"lo":[5.8,7.8,9.3,12.3,15.4,18.4,22.1,21.5,18.3,15.9,10.2,7.6]},"Marseille":{"city":"Marseille","lat":43.3,"lon":5.37,"hi":[10.8,12.8,14.4,16.5,20.5,26.1,28.7,27.8,24.8,21.3,15.4,12.7],"lo":[4.8,6.3,7.4,9.1,13.5,19.0,20.7,19.9,17.8,14.6,9.6,6.7]},"Maui":{"city":"Maui","lat":20.8,"lon":-156.33,"hi":[22.4,22.0,22.7,22.7,24.0,25.3,26.8,26.5,26.5,25.5,24.6,22.7],"lo":[15.7,15.7,16.0,16.2,17.1,17.9,19.2,18.8,18.8,18.4,17.7,16.5]},"Melbourne":{"city":"Melbourne","lat":-37.81,"lon":144.96,"hi":[27.0,25.0,23.4,20.2,16.0,13.9,13.4,14.3,17.1,18.8,21.0,23.5],"lo":[15.2,14.2,13.5,10.5,8.3,6.8,6.4,6.9,7.8,8.9,10.9,12.3]},"Miami":{"city":"Miami","lat":25.77,"lon":-80.19,"hi":[24.1,25.7,27.0,27.5,29.0,29.5,31.0,31.5,30.2,28.8,26.7,25.1],"lo":[16.9,19.9,20.4,21.5,22.7,24.0,25.4,25.7,24.2,22.9,21.0,19.2]},"Milan":{"city":"Milan","lat":45.46,"lon":9.19,"hi":[7.6,11.6,14.9,17.9,22.7,29.3,30.5,29.8,25.2,20.2,12.6,7.7],"lo":[0.0,2.3,4.1,7.5,13.1,18.7,20.3,19.7,16.1,11.8,5.1,1.4]},"Monaco":{"city":"Monaco","lat":43.74,"lon":7.42,"hi":[11.1,12.8,14.7,16.3,20.8,26.0,28.2,28.0,25.0,21.1,16.0,12.6],"lo":[3.7,5.4,6.7,8.8,13.4,18.8,21.0,20.5,17.4,13.9,8.4,5.6]},"Montevideo":{"city":"Montevideo","lat":-34.9011,"lon":-56.1645,"hi":[27.0,26.1,24.9,21.5,17.7,15.0,14.2,15.4,16.2,18.7,22.6,25.1],"lo":[19.8,19.1,18.5,15.2,12.1,9.6,8.7,9.0,10.3,12.6,15.8,17.9]},"Montreal":{"city":"Montreal","lat":45.5,"lon":-73.57,"hi":[-4.9,-3.2,3.7,12.4,20.0,24.4,25.8,25.7,21.3,15.5,6.3,1.0],"lo":[-13.4,-12.7,-5.6,1.8,8.5,14.9,17.7,17.3,13.2,8.0,-0.4,-5.4]},"Munich":{"city":"Munich","lat":48.14,"lon":11.58,"hi":[4.2,7.5,10.3,11.7,17.5,24.1,24.4,23.4,20.2,16.7,8.3,5.3],"lo":[-2.0,-0.9,-0.1,2.3,8.1,13.2,14.3,14.1,10.5,7.2,1.7,-0.9]},"Naples":{"city":"Naples","lat":40.85,"lon":14.27,"hi":[12.8,14.1,15.0,17.1,22.1,28.0,31.1,30.7,27.6,23.4,18.4,15.3],"lo":[5.6,5.6,6.5,9.1,14.0,18.7,21.8,21.5,18.8,14.9,11.7,8.4]},"New York":{"city":"New York","lat":40.71,"lon":-74.0,"hi":[5.1,5.8,10.8,16.2,21.2,26.2,29.7,28.8,24.7,19.1,12.0,8.2],"lo":[-2.5,-2.9,0.9,6.2,11.1,16.5,20.6,20.2,16.4,10.9,3.6,0.6]},"Nice":{"city":"Nice","lat":43.7,"lon":7.27,"hi":[12.3,13.8,15.8,17.4,21.7,26.5,29.0,29.2,26.1,22.1,17.3,14.0],"lo":[4.7,6.1,7.9,10.1,14.6,19.5,21.6,21.4,18.6,14.9,9.6,6.3]},"Oahu":{"city":"Oahu","lat":21.3,"lon":-157.85,"hi":[26.1,25.8,25.9,26.4,27.4,28.9,29.3,29.9,29.7,29.1,27.9,26.0],"lo":[20.9,20.9,21.2,21.6,22.4,23.3,23.7,23.8,23.9,23.1,22.7,21.2]},"Orlando":{"city":"Orlando","lat":28.54,"lon":-81.38,"hi":[21.0,24.9,27.3,27.9,30.7,31.4,31.6,32.1,29.7,27.6,24.1,22.5],"lo":[10.8,13.7,15.6,17.5,19.9,22.6,23.8,24.1,22.4,19.0,15.9,13.6]},"Oslo":{"city":"Oslo","lat":59.91,"lon":10.75,"hi":[0.4,2.2,5.8,10.4,15.9,22.5,21.8,20.6,17.0,10.4,4.3,-1.7],"lo":[-4.2,-3.9,-3.0,1.2,6.5,13.0,14.1,13.1,10.4,5.5,0.8,-6.2]},"Oxford":{"city":"Oxford","lat":51.75,"lon":-1.26,"hi":[7.0,9.2,10.8,12.5,16.1,21.0,22.0,21.6,20.4,16.0,10.8,8.4],"lo":[1.3,3.0,3.7,3.4,7.9,11.6,13.5,13.2,12.0,9.4,5.2,3.7]},"Palm Desert":{"city":"Palm Desert","lat":33.72,"lon":-116.37,"hi":[18.9,21.2,23.5,31.0,34.0,39.0,42.5,40.7,37.1,31.0,24.4,19.2],"lo":[10.5,10.5,12.2,17.2,20.2,25.1,29.9,28.8,25.1,19.2,14.1,11.2]},"Palo Alto":{"city":"Palo Alto","lat":37.44,"lon":-122.14,"hi":[14.6,15.4,16.4,19.6,22.8,25.9,27.3,28.3,26.7,23.1,17.6,13.8],"lo":[6.7,6.3,6.9,8.4,10.7,13.3,14.1,15.2,14.4,12.3,8.7,6.9]},"Paris":{"city":"Paris","lat":48.85,"lon":2.35,"hi":[7.2,9.9,12.7,14.3,18.9,24.5,25.0,24.5,22.7,18.2,11.1,8.4],"lo":[2.3,2.8,4.0,4.8,9.6,14.3,15.2,15.2,13.2,10.0,5.6,3.8]},"Pasadena":{"city":"Pasadena","lat":34.15,"lon":-118.14,"hi":[17.5,19.4,19.4,23.6,24.1,28.1,31.8,31.9,30.3,26.5,22.7,17.3],"lo":[7.3,6.8,7.6,10.3,11.8,14.6,17.3,18.3,17.4,14.1,10.6,8.1]},"Phuket":{"city":"Phuket","lat":7.8804,"lon":98.3923,"hi":[29.7,30.8,31.6,31.2,30.3,29.7,29.5,29.3,29.0,29.0,28.5,29.0],"lo":[24.1,24.4,24.9,25.3,25.5,25.1,25.1,24.8,24.6,24.2,24.1,24.1]},"Pisa":{"city":"Pisa","lat":43.72,"lon":10.4,"hi":[11.0,13.4,15.8,18.0,22.8,28.9,31.4,31.8,27.5,23.0,16.2,12.7],"lo":[2.5,3.6,4.6,6.9,12.6,17.5,20.1,19.8,16.2,13.2,8.3,4.7]},"Porto":{"city":"Porto","lat":41.15,"lon":-8.61,"hi":[13.3,15.5,16.5,18.2,20.3,21.9,24.1,24.2,23.0,21.3,16.5,14.8],"lo":[6.8,8.2,9.3,10.6,12.9,15.2,16.2,16.4,16.2,14.7,10.7,9.6]},"Prague":{"city":"Prague","lat":50.09,"lon":14.42,"hi":[4.3,6.1,10.0,12.1,19.3,25.3,25.7,24.2,21.3,16.6,8.3,4.6],"lo":[-0.6,-1.4,0.2,2.7,8.8,14.2,15.5,15.0,11.4,7.4,2.3,-0.5]},"Puerto Rico":{"city":"Puerto Rico","lat":18.47,"lon":-66.1,"hi":[28.2,28.2,28.9,29.9,31.5,31.9,31.1,31.3,31.0,30.5,29.5,28.4],"lo":[21.6,21.9,21.8,22.4,23.7,24.6,25.2,25.2,24.9,24.3,23.7,22.8]},"Quebec City":{"city":"Quebec City","lat":46.81,"lon":-71.21,"hi":[-6.2,-5.0,1.8,9.6,18.4,22.3,24.7,24.2,20.3,14.6,4.2,-0.8],"lo":[-14.2,-14.1,-7.2,-0.0,6.6,13.0,15.7,15.5,11.5,6.2,-3.1,-8.8]},"Queenstown":{"city":"Queenstown","lat":-45.03,"lon":168.66,"hi":[21.5,20.9,19.1,15.2,12.4,7.7,7.1,8.3,11.3,14.0,17.5,19.0],"lo":[12.5,12.3,11.0,7.8,6.2,2.9,1.9,2.4,3.8,5.5,8.6,10.5]},"Rio de Janeiro":{"city":"Rio de Janeiro","lat":-22.9068,"lon":-43.1729,"hi":[29.2,29.0,29.7,26.5,25.0,24.2,24.7,25.1,25.9,26.1,26.7,28.0],"lo":[23.3,23.4,23.3,21.1,19.4,18.4,17.7,18.4,19.3,20.7,20.9,22.1]},"Rome":{"city":"Rome","lat":41.9,"lon":12.5,"hi":[12.0,14.7,16.3,18.5,24.0,30.3,34.0,32.4,28.4,23.9,17.8,14.4],"lo":[3.7,4.5,5.6,7.9,13.5,18.3,21.5,20.9,17.6,14.1,9.8,6.5]},"Salzburg":{"city":"Salzburg","lat":47.8,"lon":13.05,"hi":[5.0,8.7,11.3,12.2,18.2,24.5,25.1,23.6,20.6,17.9,9.6,6.3],"lo":[-2.5,-1.2,0.0,2.2,8.3,13.3,14.8,14.3,10.9,7.5,1.6,-1.6]},"San Diego":{"city":"San Diego","lat":32.72,"lon":-117.16,"hi":[17.3,18.0,17.3,19.3,19.6,21.9,24.0,25.3,25.0,23.4,21.1,17.5],"lo":[8.3,7.8,9.3,12.0,13.8,15.8,18.1,19.0,18.4,14.8,10.7,9.0]},"San Francisco":{"city":"San Francisco","lat":37.77,"lon":-122.42,"hi":[13.3,14.2,13.5,14.8,16.5,17.8,17.8,19.7,19.9,19.3,16.3,13.0],"lo":[7.6,7.2,8.1,9.3,11.0,12.7,12.9,14.4,14.5,12.7,9.7,8.0]},"San Sebastian":{"city":"San Sebastian","lat":43.3183,"lon":-1.9812,"hi":[11.3,14.2,16.0,16.3,19.4,23.0,23.8,24.4,24.3,22.5,15.4,14.6],"lo":[5.4,6.8,8.8,8.9,11.8,16.1,16.9,17.4,16.6,14.5,9.8,8.6]},"Santiago":{"city":"Santiago","lat":-33.4489,"lon":-70.6693,"hi":[29.3,29.2,28.1,23.8,19.1,16.1,15.3,16.6,17.6,22.3,25.6,29.2],"lo":[14.4,14.8,14.0,11.8,9.6,7.9,6.6,7.8,8.2,9.8,11.4,13.8]},"Scottsdale":{"city":"Scottsdale","lat":33.49,"lon":-111.93,"hi":[18.2,20.7,23.4,31.2,34.9,40.0,40.9,38.9,37.4,30.9,25.0,18.9],"lo":[6.3,7.5,9.8,15.8,20.4,25.8,29.4,27.4,24.9,17.7,11.6,7.8]},"Seattle":{"city":"Seattle","lat":47.61,"lon":-122.33,"hi":[8.2,7.7,10.4,13.0,17.2,21.3,24.9,25.2,20.9,15.6,9.9,7.2],"lo":[2.8,2.3,3.4,4.9,9.0,12.3,14.7,15.5,12.8,9.2,4.6,2.8]},"Seoul":{"city":"Seoul","lat":37.57,"lon":126.98,"hi":[1.6,5.1,12.7,17.8,22.2,26.0,29.5,28.3,25.5,18.3,11.5,2.7],"lo":[-7.6,-5.2,0.9,6.8,11.4,17.7,22.6,21.8,17.4,9.1,1.8,-6.1]},"Seville":{"city":"Seville","lat":37.39,"lon":-5.98,"hi":[15.6,19.2,21.1,24.7,29.3,33.0,38.4,37.3,30.7,28.2,20.3,17.2],"lo":[6.4,8.5,10.0,12.8,16.0,19.2,22.4,22.2,18.8,16.7,10.6,8.8]},"Shanghai":{"city":"Shanghai","lat":31.23,"lon":121.47,"hi":[9.7,10.8,16.4,20.7,25.2,28.9,32.6,32.5,28.2,23.2,18.4,10.5],"lo":[1.0,3.3,7.6,11.6,16.2,21.3,25.8,25.5,21.8,15.8,9.8,2.1]},"Siena":{"city":"Siena","lat":43.3188,"lon":11.3328,"hi":[9.6,12.3,14.5,16.9,22.7,29.4,32.6,31.7,26.6,21.9,15.0,11.6],"lo":[1.8,2.7,3.5,5.9,11.1,16.7,19.3,18.6,15.1,11.8,7.0,4.0]},"Singapore":{"city":"Singapore","lat":1.35,"lon":103.82,"hi":[28.8,29.9,29.9,30.2,30.2,29.4,29.6,29.1,29.5,30.1,29.7,29.2],"lo":[23.1,23.3,23.7,24.3,25.2,24.8,24.8,24.3,24.5,24.0,23.7,23.5]},"Sint Maarten":{"city":"Sint Maarten","lat":18.04,"lon":-63.05,"hi":[25.8,25.6,25.6,26.0,27.0,27.8,28.2,28.5,28.7,28.5,27.6,26.7],"lo":[24.3,24.0,24.1,24.6,25.6,26.3,26.5,26.8,26.9,26.6,26.0,25.2]},"Sintra":{"city":"Sintra","lat":38.95,"lon":-9.39,"hi":[13.9,15.6,16.5,17.8,19.7,21.0,22.8,23.1,22.7,21.7,17.3,15.9],"lo":[8.5,9.7,10.6,12.3,14.2,16.1,17.0,17.4,17.4,16.2,12.3,11.4]},"Sorrento":{"city":"Sorrento","lat":40.626,"lon":14.375,"hi":[12.4,13.7,14.4,16.5,21.6,27.4,30.5,29.8,26.6,22.6,17.8,14.8],"lo":[6.8,7.0,7.5,9.8,14.7,19.7,22.7,22.2,19.5,16.1,12.5,9.5]},"Split":{"city":"Split","lat":43.5081,"lon":16.4402,"hi":[10.8,12.9,14.6,17.2,21.9,28.0,31.4,31.0,26.6,21.7,16.8,13.2],"lo":[3.8,4.7,6.3,9.3,14.3,19.4,22.0,22.3,18.2,13.7,10.6,7.2]},"Stockholm":{"city":"Stockholm","lat":59.33,"lon":18.07,"hi":[1.4,1.7,5.8,9.3,15.3,22.3,22.3,20.7,16.1,10.9,4.8,-0.4],"lo":[-3.0,-4.3,-2.6,-0.7,5.1,11.6,13.5,12.8,9.2,5.4,0.8,-5.3]},"Strasbourg":{"city":"Strasbourg","lat":48.58,"lon":7.75,"hi":[5.6,9.0,12.3,14.2,19.8,26.6,26.2,25.2,22.6,17.6,9.5,6.6],"lo":[0.5,1.2,2.3,4.6,10.0,15.5,15.7,15.8,12.5,8.9,4.2,1.8]},"Stuttgart":{"city":"Stuttgart","lat":48.78,"lon":9.18,"hi":[5.0,8.4,11.2,12.5,18.1,24.7,24.8,24.1,21.4,17.3,9.1,6.4],"lo":[-0.2,0.6,1.4,3.2,8.8,14.2,14.8,14.9,11.7,8.6,3.3,1.3]},"Sydney":{"city":"Sydney","lat":-33.87,"lon":151.21,"hi":[26.5,25.7,24.5,22.4,19.4,17.0,17.1,18.3,20.7,22.6,23.3,25.1],"lo":[19.3,18.7,17.6,13.8,10.6,8.5,8.2,8.3,10.4,12.7,14.7,16.8]},"Taipei":{"city":"Taipei","lat":25.033,"lon":121.5654,"hi":[18.9,20.2,23.6,25.5,28.9,31.4,33.5,33.0,31.1,27.3,25.1,20.0],"lo":[13.5,14.4,16.1,18.4,21.8,24.5,25.7,25.6,24.3,22.3,19.2,15.0]},"Tallinn":{"city":"Tallinn","lat":59.44,"lon":24.75,"hi":[-0.3,-0.6,3.5,8.3,14.2,21.8,22.4,21.3,15.2,9.9,3.9,-1.6],"lo":[-4.2,-4.9,-3.1,0.4,5.4,12.1,14.5,14.1,9.0,5.4,0.2,-5.9]},"Tokyo":{"city":"Tokyo","lat":35.6895,"lon":139.6917,"hi":[8.7,10.7,16.3,19.3,22.7,26.5,31.3,31.7,27.9,21.6,17.9,11.8],"lo":[-0.7,0.2,6.2,9.8,14.2,18.7,23.4,24.3,20.7,13.4,8.4,2.0]},"Toledo":{"city":"Toledo","lat":39.856,"lon":-4.025,"hi":[10.1,14.4,16.8,20.1,25.2,30.1,35.2,34.6,26.7,23.6,14.9,12.6],"lo":[1.8,4.2,6.5,8.7,12.8,17.3,21.2,21.1,16.0,13.1,7.0,5.3]},"Toronto":{"city":"Toronto","lat":43.65,"lon":-79.38,"hi":[-0.3,0.6,5.8,11.3,18.2,23.8,25.5,25.8,22.0,15.6,8.0,4.2],"lo":[-7.0,-8.2,-2.8,2.6,8.3,14.8,16.9,17.5,14.0,9.0,0.9,-1.5]},"Tromso":{"city":"Tromso","lat":69.65,"lon":18.96,"hi":[-2.5,-2.0,-0.4,2.7,7.4,14.4,17.2,15.8,10.5,4.1,-0.9,-4.2],"lo":[-6.8,-6.4,-5.1,-1.8,1.7,8.1,10.7,10.1,6.0,-0.1,-5.0,-9.0]},"Turin":{"city":"Turin","lat":45.07,"lon":7.69,"hi":[7.5,11.2,14.7,18.2,22.3,28.5,31.0,29.9,25.1,19.9,12.1,7.2],"lo":[-2.2,0.1,2.8,6.3,11.6,17.2,19.4,18.3,14.7,10.3,2.9,-1.6]},"Vancouver":{"city":"Vancouver","lat":49.28,"lon":-123.12,"hi":[6.5,5.6,8.8,11.0,15.3,19.5,22.7,22.9,18.5,13.6,8.0,4.9],"lo":[2.0,1.0,2.7,4.4,8.8,12.7,15.0,15.7,12.4,8.4,3.2,0.3]},"Venice":{"city":"Venice","lat":45.44,"lon":12.34,"hi":[7.6,9.5,12.6,14.9,20.8,26.5,29.0,28.4,24.6,19.9,13.3,8.6],"lo":[1.0,2.3,4.4,7.7,14.0,19.2,20.9,20.1,16.8,12.4,6.6,2.6]},"Verona":{"city":"Verona","lat":45.44,"lon":10.99,"hi":[7.6,11.1,14.7,17.3,22.7,28.8,31.0,29.8,25.5,20.7,12.9,8.3],"lo":[0.2,2.3,4.2,7.2,13.6,18.5,20.5,19.7,15.6,11.7,5.3,2.0]},"Vienna":{"city":"Vienna","lat":48.21,"lon":16.37,"hi":[5.0,7.7,11.1,13.2,19.5,25.8,27.6,25.7,22.2,17.2,9.4,5.2],"lo":[-0.4,0.4,1.3,4.5,10.2,15.5,17.4,16.7,12.7,8.5,3.2,-0.1]},"Virgin Islands":{"city":"Virgin Islands","lat":18.34,"lon":-64.9,"hi":[25.5,25.2,25.1,25.6,26.6,27.4,27.8,28.1,28.3,28.1,27.3,26.4],"lo":[23.9,23.7,23.7,24.2,25.2,25.9,26.2,26.4,26.5,26.2,25.6,24.8]},"Wellington":{"city":"Wellington","lat":-41.29,"lon":174.78,"hi":[19.9,19.7,18.5,16.7,15.5,13.5,12.6,12.4,13.4,14.6,16.7,18.2],"lo":[15.2,15.2,14.1,12.7,11.8,9.9,8.6,8.6,9.4,10.4,12.5,13.8]},"Zhangjiajie":{"city":"Zhangjiajie","lat":29.34,"lon":110.54,"hi":[9.3,10.9,16.8,20.0,23.9,28.4,30.6,30.9,28.5,21.0,17.2,10.5],"lo":[2.6,4.1,9.5,13.0,16.9,21.8,24.4,24.3,21.3,14.8,10.1,3.3]},"Zurich":{"city":"Zurich","lat":47.37,"lon":8.54,"hi":[4.2,7.8,11.0,13.0,18.0,24.7,24.7,24.0,20.9,16.7,8.5,5.2],"lo":[-1.3,-0.6,0.9,3.1,8.6,14.0,15.1,14.8,12.1,8.1,3.0,-0.3]},"The Bahamas":{"city":"The Bahamas","lat":25.05,"lon":-77.35,"hi":[24.9,25.9,26.4,27.4,28.1,29.4,30.8,31.0,30.4,29.1,27.2,25.6],"lo":[21.0,22.0,22.1,23.2,24.2,25.7,27.0,27.2,26.7,25.5,24.0,22.1]},"Cura\u00e7ao":{"city":"Cura\u00e7ao","lat":12.11,"lon":-68.97,"hi":[28.8,29.0,29.3,30.1,30.7,30.8,30.7,31.5,32.2,31.1,29.6,29.4],"lo":[24.8,24.8,24.9,25.5,26.3,26.4,26.4,26.9,27.3,26.6,25.7,25.5]},"Istanbul":{"city":"Istanbul","lat":41.01,"lon":28.98,"hi":[9.1,9.5,11.8,16.2,20.9,25.5,28.0,28.0,24.4,19.5,14.5,10.6],"lo":[3.4,3.6,5.5,9.4,13.7,18.3,21.0,21.0,17.4,13.0,8.9,5.3]},"Budapest":{"city":"Budapest","lat":47.5,"lon":19.04,"hi":[5.0,7.0,11.0,16.0,21.0,26.0,28.0,27.0,23.0,17.0,10.0,5.0],"lo":[-1.0,0.0,3.0,7.0,12.0,17.0,19.0,18.0,14.0,9.0,4.0,0.0]},"Portland":{"hi":[9.0,12.0,14.5,17.5,21.5,25.5,29.0,29.0,25.5,17.5,12.0,8.0],"lo":[3.0,3.5,5.5,8.0,11.5,14.5,17.5,18.0,14.0,9.0,5.5,3.0]},"Charlotte":{"hi":[12.0,14.0,18.0,22.0,27.0,31.0,33.0,32.0,28.0,23.0,17.0,13.0],"lo":[1.0,3.0,7.0,11.0,16.0,20.0,23.0,22.0,18.0,12.0,6.0,3.0]},"Philadelphia":{"hi":[4.4,6.1,11.5,17.1,22.8,27.8,30.6,29.4,25.0,19.0,12.9,7.2],"lo":[-2.6,-1.6,3.0,8.4,14.0,19.4,22.6,21.8,17.5,11.1,4.8,0.3]}}